,City,Lat,Lng,Max Temp,Humidity,Cloudiness,Wind Speed,Country,Date
0,Upernavik,72.7868,-56.1549,-0.72,76,100,1.41,GL,1619424317
1,Bredasdorp,-34.5322,20.0403,12.0,94,75,1.54,ZA,1619424317
2,Hilo,19.7297,-155.09,22.0,83,90,2.57,US,1619424109
3,Bethel,41.3712,-73.414,6.0,49,1,4.12,US,1619424334
4,Vaini,-21.2,-175.2,25.0,94,75,1.54,TO,1619424295
5,Kununurra,-15.7667,128.7333,34.0,36,100,4.12,AU,1619424173
6,Arucas,28.1198,-15.5233,19.44,72,40,2.57,ES,1619424337
7,Norman Wells,65.282,-126.8329,-5.0,54,40,1.03,CA,1619424296
8,Albany,42.6001,-73.9662,4.44,56,54,1.79,US,1619424316
9,Ribeira Grande,38.5167,-28.7,15.0,77,40,3.6,PT,1619424308
10,Fort Nelson,58.8053,-122.7002,4.0,30,75,4.12,CA,1619424338
11,Bako,5.7833,36.5667,21.16,77,100,0.63,ET,1619424339
12,Fairbanks,64.8378,-147.7164,4.0,60,1,1.3,US,1619424339
13,Hualmay,-11.0964,-77.6139,18.45,91,20,2.85,PE,1619424339
14,Plettenberg Bay,-34.0527,23.3716,19.97,69,100,2.11,ZA,1619424340
15,Turaif,31.6725,38.6637,31.0,16,0,6.17,SA,1619424340
16,Corinth,37.9407,22.9573,16.11,56,0,1.34,GR,1619424147
17,Atuona,-9.8,-139.0333,26.67,70,100,7.94,PF,1619424341
18,Rikitea,-23.1203,-134.9692,25.08,77,9,3.67,PF,1619424307
19,New Norfolk,-42.7826,147.0587,13.89,76,98,0.45,AU,1619424341
20,Kopidlno,50.3308,15.2703,6.11,65,75,0.51,CZ,1619424342
21,Busselton,-33.65,115.3333,22.78,57,100,2.58,AU,1619424298
22,Kapaa,22.0752,-159.319,23.0,78,75,7.72,US,1619424310
23,Pangody,65.85,74.4859,0.92,99,93,7.97,RU,1619424343
24,Portland,45.5234,-122.6762,10.0,76,90,1.35,US,1619423679
25,Punta Arenas,-53.15,-70.9167,6.0,93,90,4.12,CL,1619424312
26,Øksfjord,70.2396,22.3479,2.0,93,75,5.66,NO,1619424344
27,Şahbuz,39.4072,45.5739,20.0,56,90,3.09,AZ,1619424344
28,Province of Mantua,45.1667,10.7833,16.11,70,100,5.36,IT,1619424205
29,Ushuaia,-54.8,-68.3,5.06,91,100,1.68,AR,1619424296
30,Carnarvon,-24.8667,113.6333,29.0,45,4,5.66,AU,1619424317
31,Barrow,71.2906,-156.7887,-9.0,73,1,6.17,US,1619424303
32,Hithadhoo,-0.6,73.0833,28.31,66,8,2.09,MV,1619424113
33,Bluff,-46.6,168.3333,7.78,73,85,6.26,NZ,1619424301
34,Cherskiy,68.75,161.3,-8.5,85,55,1.35,RU,1619424320
35,Joshīmath,30.5667,79.5667,22.1,38,2,2.13,IN,1619424346
36,Fuerte Olimpo,-21.0415,-57.8738,17.78,83,31,2.39,PY,1619424346
37,Salinópolis,-0.6136,-47.3561,25.5,85,83,3.18,BR,1619424121
38,Saint-Pierre,-21.3393,55.4781,28.0,69,0,10.29,RE,1619424347
39,Tasiilaq,65.6145,-37.6368,4.0,70,75,9.26,GL,1619424347
40,Airai,-8.9266,125.4092,20.03,56,3,1.11,TL,1619424328
41,Turukhansk,65.8167,87.9833,-2.97,81,27,0.89,RU,1619424348
42,Asău,46.4333,26.4,3.33,63,88,0.65,RO,1619424348
43,Alugan,12.2188,125.4808,27.13,68,10,4.86,PH,1619424348
44,Lokosovo,61.1333,74.8167,9.04,70,100,6.57,RU,1619424349
45,Grindavik,63.8424,-22.4338,4.0,93,0,5.66,IS,1619424142
46,Khatanga,71.9667,102.5,-7.82,86,92,6.91,RU,1619424302
47,Shaoguan,24.8,113.5833,21.47,87,100,0.49,CN,1619424349
48,Port Alfred,-33.5906,26.891,26.62,40,100,4.09,ZA,1619424297
49,Shahdadpur,25.9241,68.62,41.0,21,0,4.12,PK,1619424350
50,Nuuk,64.1835,-51.7216,3.0,87,75,3.09,GL,1619424150
51,Gizo Government Station,-8.103,156.8419,28.65,74,79,2.83,SB,1619424351
52,Dunedin,-45.8742,170.5036,8.33,66,98,10.73,NZ,1619424093
53,Marovoay,-16.1,46.6333,33.0,52,20,4.63,MG,1619424351
54,Pastavy,55.1168,26.8326,1.84,69,100,3.91,BY,1619424352
55,Thompson,55.7435,-97.8558,-5.0,100,40,1.5,CA,1619424322
56,Kashgar,39.4547,75.9797,23.0,14,59,4.0,CN,1619424352
57,Noyabrsk,63.1994,75.4507,2.24,98,100,8.39,RU,1619424353
58,Katsuura,35.1333,140.3,18.0,29,20,6.17,JP,1619424305
59,Havelock,34.8791,-76.9013,12.78,100,1,2.06,US,1619424353
60,Cabo San Lucas,22.8909,-109.9124,21.67,19,100,5.44,MX,1619424194
61,Saint-Philippe,-21.3585,55.7679,28.0,69,0,10.29,RE,1619424311
62,Skibbereen,51.55,-9.2667,7.0,76,20,3.09,IE,1619424354
63,Alta Gracia,-31.6529,-64.4283,11.11,93,0,1.54,AR,1619424354
64,Lagoa,39.05,-27.9833,14.9,85,100,2.95,PT,1619424355
65,Port Macquarie,-31.4333,152.9167,17.22,85,0,2.46,AU,1619424037
66,Huarmey,-10.0681,-78.1522,19.22,88,22,2.84,PE,1619424355
67,Berdigestyakh,62.0989,126.6992,1.31,98,100,3.61,RU,1619424356
68,Kętrzyn,54.0768,21.3753,3.05,69,100,5.81,PL,1619424356
69,La Asuncion,11.0333,-63.8628,25.0,88,94,6.17,VE,1619424357
70,Grand Gaube,-20.0064,57.6608,26.67,81,98,4.47,MU,1619424312
71,Årdalstangen,61.2371,7.6983,0.0,51,0,3.09,NO,1619424357
72,Cape Town,-33.9258,18.4232,17.78,82,20,6.69,ZA,1619424120
73,Chui,-33.6971,-53.4616,15.26,76,90,3.74,UY,1619424305
74,Mujiayingzi,42.1167,118.7833,19.96,33,58,7.23,CN,1619424358
75,Yellowknife,62.456,-114.3525,-17.0,78,20,4.63,CA,1619424298
76,Nanortalik,60.1432,-45.2371,0.92,99,100,4.19,GL,1619424185
77,Puerto Ayora,-0.7393,-90.3518,23.18,91,7,2.18,EC,1619424306
78,Srednekolymsk,67.45,153.6833,-4.45,81,28,2.06,RU,1619424359
79,Arraial do Cabo,-22.9661,-42.0278,22.34,90,9,2.45,BR,1619424299
80,Nyurba,63.2842,118.3319,-2.87,85,100,4.66,RU,1619424213
81,Wisconsin Rapids,44.3836,-89.8174,2.22,75,90,3.6,US,1619424157
82,Pangnirtung,66.1451,-65.7125,-1.63,79,100,3.17,CA,1619424294
83,Beyneu,45.3167,55.2,30.6,14,13,9.02,KZ,1619424360
84,Richards Bay,-28.783,32.0377,24.1,62,34,0.63,ZA,1619424360
85,Mataura,-46.1927,168.8643,7.78,73,79,6.26,NZ,1619424311
86,Hobart,-42.8794,147.3294,15.0,47,20,5.14,AU,1619424301
87,Goderich,43.7501,-81.7165,-4.0,86,79,2.06,CA,1619424361
88,Agirish,61.9247,63.0231,8.72,45,98,4.53,RU,1619424362
89,Zelenoborskiy,66.845,32.3622,1.11,100,95,4.54,RU,1619424362
90,Iwanai,42.9744,140.5089,4.57,55,0,2.67,JP,1619424362
91,Pusztaszabolcs,47.1372,18.767,12.22,32,0,1.54,HU,1619424363
92,Rūdbār,30.15,62.6,34.91,10,71,3.86,AF,1619424363
93,Geraldton,-28.7667,114.6,28.0,34,99,4.12,AU,1619424364
94,Kruisfontein,-34.0033,24.7314,25.44,32,100,0.98,ZA,1619424310
95,Mweka,-4.85,21.5667,25.43,75,93,1.44,CD,1619424364
96,Lahad Datu,5.0268,118.327,27.94,81,100,1.6,MY,1619424364
97,Ashquelon,31.6693,34.5715,21.67,46,56,0.89,IL,1619424365
98,Verkhoyansk,67.5447,133.385,1.41,99,100,1.83,RU,1619424226
99,Mahébourg,-20.4081,57.7,26.0,83,75,6.17,MU,1619424355
100,Hasaki,35.7333,140.8333,17.78,41,20,6.17,JP,1619424316
101,Jamestown,42.097,-79.2353,-0.56,86,90,5.14,US,1619424163
102,São Filipe,14.8961,-24.4956,21.34,74,9,3.17,CV,1619424366
103,Nikolskoye,59.7035,30.7861,5.0,93,90,5.0,RU,1619424308
104,Esperance,-33.8667,121.9,25.0,47,43,5.14,AU,1619424224
105,Talnakh,69.4865,88.3972,-9.51,85,100,4.48,RU,1619424323
106,Saskylakh,71.9167,114.0833,-10.75,92,100,7.99,RU,1619424319
107,Bubaque,11.2833,-15.8333,25.18,62,10,4.07,GW,1619424367
108,Hohhot,40.8106,111.6522,14.0,23,20,10.0,CN,1619424367
109,Sibolga,1.7427,98.7792,29.73,66,99,2.2,ID,1619424368
110,Shingū,33.7333,135.9833,18.0,39,0,7.2,JP,1619424368
111,Sabang,5.8933,95.3214,28.98,70,100,5.26,ID,1619424369
112,Clyde River,70.4692,-68.5914,-5.0,93,90,1.03,CA,1619424227
113,Comodoro Rivadavia,-45.8667,-67.5,13.0,62,0,2.57,AR,1619424213
114,Dikson,73.5069,80.5464,-3.92,94,100,9.7,RU,1619424369
115,George Town,5.4112,100.3354,32.22,70,40,4.63,MY,1619424157
116,Pevek,69.7008,170.3133,-3.7,84,100,2.49,RU,1619424370
117,Priiskovyy,51.9333,116.6333,13.78,56,51,7.06,RU,1619424370
118,Santa Marta,11.2408,-74.199,28.33,73,97,5.93,CO,1619424106
119,Fortuna,40.5982,-124.1573,8.33,100,90,1.85,US,1619424309
120,Severo-Kuril'sk,50.6789,156.125,-0.77,94,100,7.26,RU,1619424368
121,Nouakchott,18.0858,-15.9785,18.0,72,0,7.2,MR,1619424308
122,Upata,8.0086,-62.3989,23.89,88,85,0.45,VE,1619424371
123,Tabuk,17.4189,121.4443,27.63,64,82,3.55,PH,1619424372
124,Alta Floresta,-9.8756,-56.0861,20.83,98,100,1.48,BR,1619424372
125,Hong Kong,22.2855,114.1577,25.0,77,100,2.24,HK,1619424186
126,Butaritari,3.0707,172.7902,28.05,76,8,6.01,KI,1619424328
127,Avarua,-21.2078,-159.775,23.0,94,42,0.51,CK,1619424329
128,Poum,-20.2333,164.0167,25.02,68,42,11.19,NC,1619424373
129,Yulara,-25.2406,130.9889,26.0,18,0,5.66,AU,1619424315
130,Port Elizabeth,-33.918,25.5701,20.0,77,0,1.54,ZA,1619424197
131,Makat,47.6469,53.3463,19.98,37,100,7.03,KZ,1619424202
132,East London,-33.0153,27.9116,26.0,38,0,1.54,ZA,1619424318
133,Eureka,40.8021,-124.1637,8.33,93,90,2.06,US,1619424245
134,Banda Aceh,5.5577,95.3222,29.96,64,100,3.84,ID,1619424078
135,Hermanus,-34.4187,19.2345,18.33,75,0,4.92,ZA,1619424295
136,Marrakesh,31.6315,-8.0083,17.0,67,20,1.54,MA,1619424374
137,Beringovskiy,63.05,179.3167,-2.3,93,74,1.28,RU,1619424375
138,Koslan,63.4564,48.8989,6.42,68,99,1.57,RU,1619424375
139,Pyinmana,19.7333,96.2167,41.21,23,13,4.56,MM,1619424375
140,Sidi Ali,36.0998,0.4206,16.96,71,17,3.09,DZ,1619424376
141,Hudson Bay,52.85,-102.3842,-0.69,76,51,2.28,CA,1619424376
142,Vardø,70.3705,31.1107,2.0,75,40,5.14,NO,1619424205
143,San Quintín,30.4833,-115.95,13.42,86,21,3.86,MX,1619424180
144,Moroni,-11.7022,43.2551,28.13,75,58,1.77,KM,1619424377
145,Cananea,30.95,-110.3,15.56,25,100,0.45,MX,1619424377
146,Ternate,0.8,127.4,29.14,69,9,3.43,ID,1619424378
147,Chanal,16.7167,-92.4,13.66,94,11,0.21,MX,1619424378
148,Przhevalskoye,55.5093,31.8482,3.43,60,92,3.67,RU,1619424379
149,Bluefields,12.0137,-83.7635,24.48,86,5,2.34,NI,1619424379
150,Pisco,-13.7,-76.2167,17.22,88,0,1.03,PE,1619424148
151,Playa Vicente,17.8333,-95.8167,23.52,86,12,1.66,MX,1619424379
152,Pathein,16.7833,94.7333,36.27,35,35,7.68,MM,1619424380
153,Ulladulla,-35.35,150.4667,17.0,72,20,2.57,AU,1619424096
154,Khāsh,28.2211,61.2158,30.99,9,3,2.34,IR,1619424380
155,Bud,39.447,-86.1758,7.22,65,86,2.43,US,1619424381
156,Chokurdakh,70.6333,147.9167,-1.52,95,99,2.31,RU,1619424381
157,Tuatapere,-46.1333,167.6833,7.78,73,93,6.26,NZ,1619424314
158,Columbus,39.9612,-82.9988,5.0,75,20,1.74,US,1619424136
159,Port Moresby,-9.4431,147.1797,28.0,78,40,5.14,PG,1619424382
160,Saint-Augustin,51.226,-58.6502,0.99,84,100,2.99,CA,1619424382
161,Kaitangata,-46.2817,169.8464,7.22,63,36,3.13,NZ,1619424383
162,Castro,-24.7911,-50.0119,11.89,96,15,1.25,BR,1619424062
163,Yangi Marg`ilon,40.4272,71.7189,27.0,19,0,2.06,UZ,1619424186
164,Constitución,-35.3333,-72.4167,12.98,74,0,3.05,CL,1619424299
165,La Ronge,55.1001,-105.2842,0.0,59,100,4.63,CA,1619424188
166,Coyhaique,-45.5752,-72.0662,6.54,97,67,2.68,CL,1619424127
167,Rome,43.2128,-75.4557,2.0,60,90,7.72,US,1619424384
168,North Bend,43.4065,-124.2243,8.0,93,90,2.57,US,1619424384
169,Severo-Yeniseyskiy,60.3725,93.0408,3.87,57,6,2.17,RU,1619424209
170,Biryusinsk,55.9634,97.8235,4.41,92,100,5.37,RU,1619424385
171,Muros,42.7762,-9.0603,13.89,94,62,0.45,ES,1619424385
172,Baoqing,46.3317,132.2111,15.6,22,100,3.49,CN,1619424386
173,Saint George,37.1041,-113.5841,19.0,22,1,4.63,US,1619424013
174,Kutum,14.2,24.6667,30.58,7,81,7.5,SD,1619424386
175,Tongliao,43.6125,122.2653,21.82,22,100,8.98,CN,1619424386
176,Ambilobe,-13.2,49.05,31.28,53,19,1.93,MG,1619424387
177,Kushmurun,52.4503,64.6311,10.94,68,100,7.33,KZ,1619424387
178,Areosa,41.7178,-8.8571,16.11,88,75,2.06,PT,1619424388
179,Sørland,67.667,12.6934,3.0,70,90,4.12,NO,1619424135
180,Marsá Maţrūḩ,31.3525,27.2453,19.0,63,40,6.69,EG,1619424128
181,Longyearbyen,78.2186,15.6401,-7.0,53,20,2.57,SJ,1619424062
182,Butka,56.7179,63.7866,11.24,28,99,7.28,RU,1619424388
183,Mossamedes,-15.1961,12.1522,22.0,88,75,2.57,AO,1619424389
184,Valparaíso,-33.0393,-71.6273,11.11,81,0,3.11,CL,1619424390
185,Torbay,47.6666,-52.7314,7.0,53,40,7.72,CA,1619424327
186,Kargasok,59.0556,80.8572,7.44,86,100,5.19,RU,1619424390
187,Springbok,-29.6643,17.8865,18.02,39,100,2.99,ZA,1619424390
188,Awjilah,29.1081,21.2869,20.7,44,0,2.8,LY,1619424391
189,Plouzané,48.3833,-4.6167,10.0,76,20,11.83,FR,1619424391
190,Sumenep,-7.0167,113.8667,29.43,66,3,4.03,ID,1619424392
191,Mehamn,71.0357,27.8492,2.0,80,75,4.12,NO,1619424392
192,Nome,64.5011,-165.4064,5.0,60,20,4.63,US,1619424083
193,Puerto Ayacucho,5.6639,-67.6236,23.49,88,100,1.64,VE,1619424393
194,Stokmarknes,68.5646,14.9108,3.0,75,75,3.6,NO,1619424393
195,Luganville,-15.5333,167.1667,26.17,86,95,3.68,VU,1619424393
196,Lucapa,-8.4192,20.7447,20.97,89,100,0.16,AO,1619424394
197,Coquimbo,-29.9533,-71.3436,12.0,87,90,1.54,CL,1619424394
198,Anastácio,-20.4836,-55.8069,17.88,96,94,1.61,BR,1619424395
199,Andenes,69.3143,16.1194,2.0,80,75,3.09,NO,1619424395
200,Qaanaaq,77.484,-69.3632,-1.09,63,52,4.46,GL,1619424395
201,Malatya Province,38.5,38.0,28.0,21,40,5.14,TR,1619424396
202,Saint Paul Harbor,57.79,-152.4072,6.0,70,1,3.09,US,1619424396
203,Kaeo,-35.1,173.7833,13.89,85,100,0.89,NZ,1619424397
204,Sal Rei,16.1833,-22.9167,20.0,77,40,1.54,CV,1619424397
205,San Juan,-31.5375,-68.5364,15.7,53,0,1.09,AR,1619424397
206,Te Anau,-45.4167,167.7167,4.5,82,79,1.68,NZ,1619424326
207,Kodinsk,58.6881,99.1844,5.13,60,100,4.19,RU,1619424398
208,Waipawa,-41.4122,175.5153,15.0,58,0,7.2,NZ,1619424138
209,Laguna,38.421,-121.4238,8.89,76,1,1.54,US,1619424399
210,Ancud,-41.8697,-73.8203,11.11,93,90,2.06,CL,1619424399
211,Bardstown,37.8092,-85.4669,7.22,100,90,2.05,US,1619424399
212,Kavieng,-2.5744,150.7967,28.28,72,95,1.86,PG,1619424400
213,Forbes,-33.3833,148.0167,14.38,50,0,2.57,AU,1619424400
214,Touros,-5.1989,-35.4608,23.0,100,0,2.06,BR,1619424168
215,Faanui,-16.4833,-151.75,27.24,66,2,1.27,PF,1619424401
216,Avera,33.194,-82.5271,13.0,73,1,1.54,US,1619424401
217,Klyuchi,52.2667,79.1667,17.92,36,100,5.93,RU,1619424402
218,Klaksvík,62.2266,-6.589,7.0,87,100,4.63,FO,1619424331
219,Dicabisagan,17.0818,122.4157,24.87,83,91,3.89,PH,1619424402
220,Vostok,46.4856,135.8833,9.6,27,17,3.54,RU,1619424403
221,Sheridan,44.8333,-106.9173,7.22,93,90,2.06,US,1619424403
222,Aleksandrovskoye,44.7142,43.0008,9.0,93,90,2.0,RU,1619424403
223,Krasnosel'kup,65.7,82.4667,-0.75,88,20,5.4,RU,1619424087
224,General Pico,-35.6566,-63.7568,8.71,88,0,2.77,AR,1619424404
225,Birsk,55.4211,55.5428,9.39,38,43,9.57,RU,1619424404
226,Aksu,41.1231,80.2644,21.43,14,48,1.17,CN,1619424405
227,Kuala Terengganu,5.3302,103.1408,32.0,70,40,2.06,MY,1619424405
228,Pahrump,36.2083,-115.9839,15.0,36,100,5.36,US,1619424406
229,Port Blair,11.6667,92.75,30.37,64,52,2.25,IN,1619424406
230,Lüderitz,-26.6481,15.1594,19.14,71,100,1.44,NA,1619424212
231,Quatre Cocos,-20.2078,57.7625,26.67,83,75,6.17,MU,1619424406
232,Sistranda,63.7256,8.834,4.0,81,75,2.06,NO,1619424407
233,Baruun-Urt,46.6806,113.2792,8.36,46,100,12.3,MN,1619424407
234,Saldanha,-33.0117,17.9442,15.0,94,2,3.09,ZA,1619424190
235,Prieska,-29.6641,22.7474,25.96,17,70,4.94,ZA,1619424408
236,Quryq,43.2,51.65,18.18,51,44,5.5,KZ,1619424408
237,Lindon,40.3433,-111.7208,9.0,71,75,6.69,US,1619424124
238,St. George's,12.0564,-61.7485,25.0,83,20,5.14,GD,1619424409
239,Vila do Maio,15.1333,-23.2167,21.0,68,75,5.14,CV,1619424409
240,Lebu,-37.6167,-73.65,11.54,93,8,4.02,CL,1619424323
241,Zaysan,47.4667,84.8667,12.88,25,73,1.69,KZ,1619424410
242,Iqaluit,63.7506,-68.5145,0.0,93,90,0.66,CA,1619424154
243,Meulaboh,4.1363,96.1285,30.0,63,93,3.8,ID,1619424411
244,Ust'-Donetskiy,47.6419,40.8718,6.09,92,100,5.15,RU,1619424411
245,Inhambane,-23.865,35.3833,26.78,56,0,1.56,MZ,1619424412
246,Ponta do Sol,32.6667,-17.1,15.56,79,31,1.34,PT,1619424205
247,Muborak,39.2553,65.1528,31.49,14,0,6.49,UZ,1619424412
248,Muroto-misakicho,33.2833,134.15,18.0,39,0,3.6,JP,1619424413
249,Inuvik,68.3499,-133.7218,-11.0,85,53,3.09,CA,1619424413
250,Salalah,17.0151,54.0924,31.0,58,20,5.66,OM,1619424225
251,Taoudenni,22.6783,-3.9836,32.43,13,2,4.75,ML,1619424413
252,Chara,56.9064,118.2631,1.66,99,100,1.62,RU,1619424143
253,Weihe,32.9952,105.3247,19.98,39,94,3.21,CN,1619424414
254,Kuytun,54.3419,101.5036,5.85,54,100,8.26,RU,1619424414
255,Hofn,64.2539,-15.2082,7.0,61,20,5.14,IS,1619424214
256,Ardakān,32.31,54.0175,29.0,20,40,2.06,IR,1619424415
257,Omboué,-1.5746,9.2618,29.1,73,91,2.35,GA,1619424415
258,Aklavik,68.2191,-135.0107,-11.0,85,100,3.09,CA,1619424299
259,Tuktoyaktuk,69.4541,-133.0374,-17.78,97,44,3.9,CA,1619424416
260,Dayong,25.0209,118.2898,26.0,57,20,6.0,CN,1619424416
261,Saint-Joseph,-21.3667,55.6167,28.0,69,0,10.29,RE,1619424417
262,Skellefteå,64.7507,20.9528,1.0,51,0,5.66,SE,1619424417
263,Broken Hill,-31.95,141.4333,21.0,35,0,5.14,AU,1619424417
264,Mar del Plata,-38.0023,-57.5575,15.0,82,75,3.17,AR,1619424297
265,Provideniya,64.3833,-173.3,0.36,94,74,0.45,RU,1619424321
266,Honiara,-9.4333,159.95,26.67,87,91,1.79,SB,1619424418
267,Port Keats,-14.25,129.55,30.46,54,27,1.38,AU,1619424072
268,Serrinha,-11.6642,-39.0075,19.99,98,96,1.24,BR,1619424419
269,Trairi,-3.2778,-39.2689,22.4,89,29,2.79,BR,1619424180
270,Presidencia Roque Sáenz Peña,-26.7852,-60.4388,10.04,80,0,2.16,AR,1619424200
271,Kysyl-Syr,63.8986,122.7617,-0.11,95,100,3.68,RU,1619424420
272,Mahibadhoo,3.7833,72.9667,28.79,71,58,2.47,MV,1619424420
273,Bayir,37.2687,28.2167,21.0,46,0,4.12,TR,1619424420
274,Bengkulu,-3.8004,102.2655,28.41,78,87,3.25,ID,1619424320
275,Velyka Lepetykha,47.1757,33.9436,12.65,50,65,4.82,UA,1619424421
276,Luanda,-8.8368,13.2343,29.0,79,75,3.09,AO,1619424383
277,Chimoré,-16.9833,-65.1333,18.4,97,70,0.37,BO,1619424421
278,Roald,62.5833,6.1333,5.0,60,0,4.63,NO,1619424422
279,Oiã,40.5426,-8.5386,16.67,91,29,1.46,PT,1619424422
280,Nortelândia,-14.4547,-56.8028,21.11,97,100,1.61,BR,1619424423
281,Bilibino,68.0546,166.4372,-6.41,90,100,1.73,RU,1619424423
282,Mizdah,31.4451,12.9801,21.3,38,78,5.38,LY,1619424423
283,Philadelphia,39.9523,-75.1638,9.44,43,1,7.2,US,1619424233
284,Tanete,-3.9443,119.7848,31.49,56,84,2.12,ID,1619424424
285,Matagami,49.7502,-77.6328,-9.0,100,20,6.69,CA,1619424154
286,Mahajanga,-15.7167,46.3167,33.0,52,20,4.63,MG,1619424424
287,Evensk,61.95,159.2333,-6.07,89,100,1.9,RU,1619424425
288,Beisfjord,68.3751,17.5988,3.0,65,75,1.54,NO,1619424425
289,Azángaro,-14.9167,-70.2167,4.9,72,99,0.78,PE,1619424425
290,Kisangani,0.5167,25.2,26.23,73,100,1.66,CD,1619424283
291,Buriti,-22.9302,-45.3881,15.56,90,93,0.39,BR,1619424426
292,Hambantota,6.1241,81.1185,32.0,74,75,2.06,LK,1619424362
293,Atar,20.5169,-13.0499,24.77,22,5,4.04,MR,1619424374
294,Carbondale,37.7273,-89.2168,11.0,71,1,1.54,US,1619423940
295,Gamba,-2.65,10.0,28.0,77,88,2.02,GA,1619424126
296,Chiredzi,-21.05,31.6667,27.55,32,0,0.23,ZW,1619424427
297,Esim,4.8699,-2.2405,28.69,76,93,1.53,GH,1619424194
298,Petropavlovsk-Kamchatskiy,53.0452,158.6483,3.0,100,90,3.0,RU,1619424129
299,Noumea,-22.2763,166.4572,21.0,94,75,1.54,NC,1619424428
300,Chenzhou,25.8,113.0333,16.29,98,100,1.29,CN,1619424428
301,Departamento de Maldonado,-34.6667,-54.9167,17.22,63,20,7.2,UY,1619424429
302,San Patricio,28.017,-97.5169,23.0,88,75,4.12,US,1619424302
303,Vallenar,-28.5708,-70.7581,13.93,85,0,1.61,CL,1619424429
304,Porbandar,21.6422,69.6093,38.0,32,0,7.2,IN,1619424430
305,Batagay-Alyta,67.8006,130.4114,-0.13,93,100,1.26,RU,1619424430
306,Vilyuysk,63.7553,121.6247,-1.81,90,100,5.02,RU,1619424430
307,Karratha,-20.7377,116.8463,29.8,28,0,6.21,AU,1619424325
308,Flinders,-34.5833,150.8552,16.67,74,0,0.62,AU,1619424171
309,Esil,51.9556,66.4042,9.35,84,100,5.73,KZ,1619424431
310,Vila Franca do Campo,37.7167,-25.4333,14.0,82,75,3.09,PT,1619424431
311,Vettavalam,12.1,79.25,35.65,31,90,1.23,IN,1619424432
312,Yaan,7.3833,8.5667,27.35,75,100,3.51,NG,1619424432
313,Whitehorse,60.7161,-135.0538,7.0,31,1,1.03,CA,1619424433
314,San Pedro de Macorís,18.4616,-69.2972,22.0,88,40,2.06,DO,1619424433
315,Riyadh,24.6877,46.7219,34.0,12,40,6.69,SA,1619424426
316,Geldrop,51.4217,5.5597,9.44,57,0,3.09,NL,1619424434
317,Piaçabuçu,-10.4056,-36.4344,24.14,87,3,1.9,BR,1619424211
318,Eidsvåg,62.7767,8.0668,4.0,65,0,3.6,NO,1619424434
319,Borovskoy,53.8,64.15,13.15,25,23,7.62,KZ,1619424435
320,Rio Grande,-32.035,-52.0986,14.44,92,93,6.11,BR,1619424435
321,Tawang Town,27.5833,91.8667,17.62,28,47,4.02,IN,1619424435
322,Mapiripán,2.8892,-72.1256,23.11,93,100,0.37,CO,1619424436
323,Santa Cruz de la Sierra,-17.8,-63.1667,18.0,88,0,3.6,BO,1619424436
324,Ust-Kuyga,70.0167,135.6,0.66,95,100,1.74,RU,1619424436
325,Kavaratti,10.5669,72.642,29.38,68,1,2.7,IN,1619424437
326,Souillac,-20.5167,57.5167,26.0,83,75,6.17,MU,1619424313
327,Nizwá,22.9333,57.5333,35.5,12,0,4.53,OM,1619424437
328,Bontang,0.1333,117.5,28.97,69,21,2.37,ID,1619424438
329,Mae Sot,16.7167,98.5667,31.0,66,75,4.12,TH,1619424438
330,Berlevåg,70.8578,29.0864,2.0,80,75,4.12,NO,1619424439
331,Severnyy,50.677,36.5532,12.0,40,0,6.0,RU,1619424439
332,Anadyr,64.75,177.4833,-4.0,100,75,3.0,RU,1619424439
333,Umluj,25.0213,37.2685,30.25,44,0,5.68,SA,1619424440
334,Rongcheng,30.634,117.8517,17.05,94,100,1.66,CN,1619424440
335,Yar-Sale,66.8333,70.8333,1.11,100,100,6.58,RU,1619424441
336,Belaya Gora,68.5333,146.4167,-3.01,82,77,4.09,RU,1619424441
337,Haines Junction,60.7522,-137.5108,1.0,60,0,0.51,CA,1619424441
338,Harper,4.375,-7.7169,26.18,80,100,1.24,LR,1619424442
339,Tāybād,34.74,60.7756,29.5,12,2,6.74,IR,1619424191
340,Mercedes,-34.6515,-59.4307,8.89,99,90,1.83,AR,1619424442
341,Yeppoon,-23.1333,150.7333,23.0,53,0,2.06,AU,1619424443
342,Baker City,44.7749,-117.8344,4.44,87,90,1.69,US,1619424443
343,Salamá,14.8333,-86.5833,19.72,81,43,1.09,HN,1619424443
344,Nioki,-2.7167,17.6833,25.87,79,98,1.51,CD,1619424444
345,Ossora,59.2353,163.0719,-0.61,95,100,0.96,RU,1619424444
346,Champerico,14.3,-91.9167,18.89,96,38,2.43,GT,1619424445
347,Perth,-31.9333,115.8333,30.0,23,0,4.63,AU,1619424248
348,Blagoyevo,63.3667,47.9167,6.54,72,100,1.11,RU,1619424445
349,Mount Gambier,-37.8333,140.7667,15.0,72,90,3.6,AU,1619424446
350,Chingirlau,51.095,54.0814,11.49,33,100,2.29,KZ,1619424446
351,Sur,22.5667,59.5289,35.0,29,100,0.61,OM,1619424447
352,Kawambwa,-9.7915,29.0791,23.17,63,67,2.81,ZM,1619424447
353,Chaman,30.9236,66.4512,30.39,9,5,5.22,PK,1619424447
354,Kirkuk,35.4681,44.3922,34.51,12,100,9.62,IQ,1619424260
355,Pitimbu,-7.4706,-34.8086,23.0,100,0,1.54,BR,1619424448
356,Prince Rupert,54.3161,-130.3201,11.0,76,1,2.06,CA,1619424448
357,Lorengau,-2.0226,147.2712,28.12,74,99,0.57,PG,1619424449
358,Keti Bandar,24.1447,67.4497,31.46,56,0,6.76,PK,1619424449
359,Port Augusta,-32.5,137.7667,21.0,60,0,4.63,AU,1619424158
360,Princeton,25.5384,-80.4089,25.0,94,1,2.06,US,1619424450
361,Andros Town,24.7,-77.7667,25.46,78,0,3.1,BS,1619424450
362,Sundarnagar,31.5333,76.8833,27.0,17,0,2.88,IN,1619424450
363,Abu Samrah,35.3029,37.1841,27.82,21,0,7.77,SY,1619424451
364,Leningradskiy,69.3833,178.4167,-7.42,96,18,1.3,RU,1619424451
365,Makakilo City,21.3469,-158.0858,24.0,68,1,2.57,US,1619424451
366,Swan River,52.1058,-101.2676,1.0,80,54,4.12,CA,1619424452
367,Saint Anthony,45.0205,-93.218,6.0,56,1,3.6,US,1619424452
368,Jacmel,18.2342,-72.5347,25.0,73,96,5.66,HT,1619424453
369,Natá,8.3333,-80.5167,25.0,46,97,3.13,PA,1619424166
370,San Cristobal,7.7669,-72.225,19.28,83,87,0.53,VE,1619424341
371,Jaguarari,-10.2639,-40.1958,18.94,98,99,2.42,BR,1619424453
372,Abu Dhabi,24.4667,54.3667,40.0,12,0,3.09,AE,1619424454
373,Tehachapi,35.1322,-118.449,5.56,85,100,1.79,US,1619424454
374,Namatanai,-3.6667,152.4333,27.28,77,67,1.96,PG,1619424454
375,Japura,-0.3167,102.35,28.51,83,85,0.72,ID,1619424455
376,Santiago del Estero,-27.7951,-64.2615,13.48,71,0,2.1,AR,1619424455
377,Kaffrine,14.1059,-15.5508,21.0,83,0,2.06,SN,1619424455
378,Bondoukou,8.0333,-2.8,25.66,79,100,2.44,CI,1619424456
379,Viedma,-40.8135,-62.9967,10.96,74,1,4.07,AR,1619424456
380,Belfast,54.5833,-5.9333,10.0,66,100,3.09,GB,1619424302
381,Lompoc,34.6391,-120.4579,11.0,87,100,1.54,US,1619424457
382,Kismayo,-0.3582,42.5454,30.88,61,56,4.89,SO,1619424457
383,Duku,11.2361,4.9073,28.7,57,100,2.7,NG,1619424458
384,Kamakwie,9.5,-12.2333,26.82,60,100,2.0,SL,1619424458
385,Kasane,-17.8167,25.15,25.0,53,0,1.54,BW,1619424458
386,Trenggalek,-8.05,111.7167,28.1,77,64,2.44,ID,1619424459
387,Khanbari,27.3747,87.2039,33.43,10,4,4.08,NP,1619424459
388,Great Yarmouth,52.6083,1.7305,7.78,65,75,4.12,GB,1619424459
389,Sakakah,29.9697,40.2064,33.0,15,0,7.2,SA,1619424105
390,Visnagar,23.7,72.55,42.0,9,1,2.06,IN,1619424460
391,Dhidhdhoo,6.8833,73.1,29.2,71,12,2.64,MV,1619424178
392,Odesa,46.4775,30.7326,11.0,76,20,6.0,UA,1619424460
393,Guatire,10.4762,-66.5427,23.0,88,40,1.03,VE,1619424461
394,Helong,42.5397,128.9972,18.76,20,100,2.27,CN,1619424176
395,Ilulissat,69.2167,-51.1,9.0,43,75,8.75,GL,1619424461
396,Maceió,-9.6658,-35.7353,22.0,100,20,1.54,BR,1619424462
397,La Reforma,18.1,-91.0167,24.91,69,24,2.66,MX,1619424462
398,Ukiah,39.1502,-123.2078,7.0,81,90,1.14,US,1619424303
399,Ahipara,-35.1667,173.1667,14.54,77,100,2.52,NZ,1619424463
400,Narsaq,60.9167,-46.05,9.0,37,75,12.35,GL,1619424321
401,Acaraú,-2.8856,-40.12,23.91,86,23,3.75,BR,1619424463
402,Trincomalee,8.5711,81.2335,28.55,74,36,6.66,LK,1619424464
403,Bathsheba,13.2167,-59.5167,26.0,61,75,6.17,BB,1619424302
404,Kualakapuas,-3.0091,114.3876,32.0,48,40,2.57,ID,1619424464
405,Codrington,-38.2667,141.9667,14.12,76,100,3.47,AU,1619424298
406,Gunjur,13.2019,-16.7339,21.0,83,0,2.57,GM,1619424094
407,Bambous Virieux,-20.3428,57.7575,26.67,83,75,6.17,MU,1619424300
408,Xingtai,37.0631,114.4942,25.39,32,3,3.34,CN,1619424465
409,Paamiut,61.994,-49.6678,1.41,98,100,3.17,GL,1619424312
410,Nanning,22.8167,108.3167,20.0,88,90,4.0,CN,1619424466
411,Puerto Madryn,-42.7692,-65.0385,14.09,55,39,7.29,AR,1619424416
412,Kampong Thom,12.7111,104.8887,37.47,34,35,3.51,KH,1619424466
413,Korla,41.7597,86.1469,17.18,16,74,2.88,CN,1619424467
414,Los Llanos de Aridane,28.6585,-17.9182,20.0,64,75,4.59,ES,1619424228
415,Pemangkat,1.1667,108.9667,29.17,73,5,3.81,ID,1619424093
416,Newberry,34.2746,-81.6187,11.67,94,0,2.27,US,1619424467
417,Kangayam,11.0,77.5667,34.0,49,40,1.54,IN,1619424468
418,Mogadishu,2.0371,45.3438,31.0,62,40,2.57,SO,1619424209
419,Vestmannaeyjar,63.4427,-20.2734,8.0,71,0,1.54,IS,1619424468
420,Guangyuan,32.442,105.823,23.89,44,67,1.04,CN,1619424469
421,Usta Muhammad,28.1794,68.0445,42.15,8,0,2.47,PK,1619424469
422,Martapura,-3.4167,114.85,32.0,48,40,2.57,ID,1619424470
423,Yerbogachën,61.2767,108.0108,-2.97,61,100,6.36,RU,1619424111
424,Burnie,-41.0667,145.9167,12.22,74,100,3.58,AU,1619424412
425,Khani,41.9563,42.9566,15.0,72,90,3.09,GE,1619424470
426,Oranjemund,-28.55,16.4333,19.13,73,100,4.53,NA,1619424233
427,Naze,28.3667,129.4833,22.0,73,75,7.72,JP,1619424056
428,Cidreira,-30.1811,-50.2056,16.55,77,68,7.12,BR,1619424295
429,Padang,-0.9492,100.3543,31.0,66,40,2.06,ID,1619424471
430,Tambacounda,13.7539,-13.7586,25.0,31,0,1.03,SN,1619424472
431,Tanhaçu,-14.0214,-41.2481,21.0,85,10,2.17,BR,1619424472
432,Rawson,-43.3002,-65.1023,13.91,59,91,5.23,AR,1619424472
433,Quelimane,-17.8786,36.8883,28.78,65,9,1.59,MZ,1619424473
434,Lithgow,-33.4833,150.15,11.11,62,10,0.8,AU,1619424473
435,Borogontsy,62.6683,131.1683,0.76,99,100,2.68,RU,1619424206
436,Tieli,46.95,128.05,16.68,21,99,5.21,CN,1619424474
437,Caravelas,-17.7125,-39.2481,22.15,91,84,2.86,BR,1619424474
438,Ixtapa,20.7,-105.2,24.44,81,97,0.91,MX,1619424474
439,Ostrovnoy,68.0531,39.5131,-0.22,90,100,10.29,RU,1619424430
440,Sitka,57.0531,-135.33,7.0,53,1,0.65,US,1619424475
441,Carupano,10.6678,-63.2585,23.14,92,71,2.92,VE,1619424475
442,Dharmapuri,12.1333,78.1667,34.0,43,40,1.03,IN,1619424476
443,Nan,18.8333,100.6667,33.0,52,0,1.03,TH,1619424187
444,Novoagansk,61.9449,76.6625,8.61,70,15,6.51,RU,1619424476
445,Florø,61.5996,5.0328,6.0,45,0,4.63,NO,1619424477
446,Doha,25.2867,51.5333,39.0,17,94,4.12,QA,1619424228
447,Tual,-5.6667,132.75,28.39,67,41,4.29,ID,1619424477
448,Ingham,42.6,-84.3833,2.22,86,40,1.54,US,1619424478
449,Kollam,8.8833,76.6,33.0,62,20,4.12,IN,1619424478
450,São Miguel do Araguaia,-13.275,-50.1628,22.55,85,100,0.68,BR,1619424428
451,Mapiri,-15.25,-68.1667,17.94,99,100,0.45,BO,1619424479
452,Guerrero Negro,27.9769,-114.0611,14.19,83,100,4.32,MX,1619424479
453,Cayenne,4.9333,-52.3333,26.11,94,75,3.93,GF,1619424480
454,Fonte Boa,-2.4959,-66.2662,22.76,99,100,1.1,BR,1619424480
455,Kautokeino,69.0125,23.0412,-5.2,79,99,1.59,NO,1619424480
456,Pedasí,7.5333,-80.0333,26.65,78,100,6.92,PA,1619424481
457,Royan,45.6285,-1.0281,14.0,51,100,5.14,FR,1619424481
458,Hamilton,39.1834,-84.5333,6.67,93,1,1.36,US,1619424357
459,Progreso,21.2833,-89.6667,26.0,78,1,4.63,MX,1619424118
460,Erdenet,49.0333,104.0833,4.62,36,100,6.15,MN,1619424482
461,Terrace Bay,48.7834,-87.1,-4.0,86,100,3.49,CA,1619424482
462,Teguise,29.0605,-13.564,19.0,77,40,1.03,ES,1619424483
463,Nemuro,43.3236,145.575,5.0,26,20,4.63,JP,1619424483
464,Salym,60.0625,71.4789,10.92,56,100,5.68,RU,1619424484
465,Baijiantan,45.6333,85.1833,15.36,14,12,1.34,CN,1619424430
466,Muromtsevo,56.3724,75.2418,14.58,47,100,5.78,RU,1619424484
467,Cristalina,-16.7686,-47.6136,16.45,77,100,0.88,BR,1619424485
468,Wuxue,29.8506,115.5525,17.72,88,100,2.4,CN,1619424485
469,Petauke,-14.2426,31.3253,25.85,52,36,2.03,ZM,1619424485
470,Lishan,31.8576,113.2951,16.06,74,94,0.77,CN,1619424486
471,Lavrentiya,65.5833,-171.0,-4.43,94,100,2.47,RU,1619424486
472,Maiduguri,11.8464,13.1603,34.57,27,29,2.9,NG,1619424487
473,Tessalit,20.1986,1.0114,33.48,7,7,4.94,ML,1619424487
474,Novaya Ladoga,60.1025,32.3019,3.33,99,100,1.14,RU,1619424487
475,Ol'ga,43.7444,135.2892,9.71,43,7,5.01,RU,1619424488
476,Kahului,20.8947,-156.47,23.0,78,40,6.69,US,1619424488
477,Poya,-21.35,165.15,22.08,75,77,4.79,NC,1619424488
478,Berezovyy,51.6667,135.7,11.69,43,95,3.84,RU,1619424489
479,Doka,13.5167,35.7667,32.81,36,45,7.19,SD,1619424489
480,Sawang Daen Din,17.4753,103.4575,36.67,48,100,2.14,TH,1619424490
481,Flin Flon,54.7682,-101.865,-1.6,79,99,2.28,CA,1619424075
482,Raudeberg,61.9875,5.1352,6.0,45,0,4.63,NO,1619424490
483,Port Hawkesbury,45.6169,-61.3485,10.0,93,90,11.83,CA,1619424414
484,Impfondo,1.6381,18.0667,27.85,64,94,2.15,CG,1619424491
485,Samarai,-10.6167,150.6667,28.47,75,96,5.04,PG,1619424491
486,Daoukro,7.0591,-3.9631,25.82,77,100,1.4,CI,1619424491
487,Honningsvåg,70.9821,25.9704,1.51,69,100,4.64,NO,1619424492
488,Nelson Bay,-32.7167,152.15,17.22,77,0,2.32,AU,1619424308
489,Vao,-22.6667,167.4833,23.25,71,53,8.59,NC,1619424407
490,Okha,53.5739,142.9478,-0.37,63,5,2.6,RU,1619424492
491,Selty,57.3132,52.1345,4.87,77,100,7.54,RU,1619424493
492,Magdagachi,53.45,125.8,17.35,21,100,3.67,RU,1619424493
493,Mulheim,6.6072,-57.8881,24.0,94,20,2.06,GY,1619424494
494,Mīrābād,30.4362,61.8383,35.45,9,4,5.08,AF,1619424494
495,Alice Springs,-23.7,133.8833,25.0,19,0,4.63,AU,1619424495
496,Paita,-5.0892,-81.1144,20.6,80,100,5.45,PE,1619424495
497,Rezina,47.7492,28.9622,7.8,59,87,4.9,MD,1619424495
498,Pochtovoye,44.8311,33.9545,12.94,41,6,3.17,UA,1619424496
499,Moses Lake,47.1301,-119.2781,4.0,81,1,3.6,US,1619424333
500,Huilong,31.8111,121.655,22.78,63,24,7.28,CN,1619424496
501,Harlingen,26.1906,-97.6961,23.33,94,1,4.12,US,1619424340
502,Arkhangelsk,64.5401,40.5433,4.0,93,90,3.0,RU,1619424497
503,Husavik,66.0449,-17.3389,2.0,80,90,2.57,IS,1619424143
504,Jumla,29.2747,82.1838,21.67,20,27,4.8,NP,1619424497
505,Prachuap Khiri Khan,12.2167,99.75,33.0,66,20,4.12,TH,1619424498
506,Turinsk,58.0458,63.696,9.86,37,82,6.5,RU,1619424498
507,São Sepé,-30.1606,-53.5653,12.3,82,72,1.22,BR,1619424498
508,Shimoni,-4.6476,39.3817,28.04,73,92,6.32,KE,1619424499
509,Accra,5.556,-0.1969,27.0,89,0,4.12,GH,1619424499
510,Tanout,14.9709,8.8879,34.77,11,15,3.16,NE,1619424500
511,Kayes,14.0,-11.0,32.65,17,6,2.8,ML,1619424500
512,Karrāpur,23.95,78.85,38.02,4,5,2.46,IN,1619424500
513,Rocky Mountain House,52.3668,-114.9188,-3.0,74,10,1.03,CA,1619424220
514,Dalvik,65.9702,-18.5286,2.0,80,90,2.57,IS,1619424501
515,Mackay,-21.15,149.2,24.0,64,75,6.17,AU,1619424501
516,Kuznechikha,57.2161,42.3348,4.67,84,100,6.96,RU,1619424502
517,Tura,25.5198,90.2201,38.42,13,98,2.95,IN,1619424182
518,Cap Malheureux,-19.9842,57.6142,26.67,80,98,3.58,MU,1619424071
519,Kiryat Gat,31.61,34.7642,21.11,41,22,0.89,IL,1619424002
520,Salamiyah,35.0113,37.0532,26.79,24,0,9.01,SY,1619424502
521,Sioux Lookout,50.1001,-91.917,2.0,35,75,4.63,CA,1619424503
522,Bourail,-21.5667,165.4833,21.87,73,96,4.36,NC,1619424503
523,Rockland,41.1668,-74.0496,6.11,64,27,0.45,US,1619424504
524,Namie,37.4833,141.0,10.0,61,100,6.18,JP,1619424504
525,Olafsvik,64.8945,-23.7142,4.09,83,3,5.03,IS,1619424504
526,Weymouth,42.2209,-70.9398,9.0,70,8,6.17,US,1619424505
527,Shache,38.4167,77.2406,25.1,10,0,2.39,CN,1619424505
528,Hutang,31.5333,119.4833,25.0,44,40,2.0,CN,1619424505
529,Mumbwa,-14.9783,27.0619,24.84,43,4,3.27,ZM,1619424506
530,La Unión,-5.4,-80.75,21.53,72,95,5.61,PE,1619424506
531,Mandalgovi,45.7625,106.2708,2.35,49,100,13.03,MN,1619424098
532,Tahlequah,35.9154,-94.97,17.78,67,1,4.12,US,1619424507
533,Witu,-2.3889,40.4382,31.91,56,41,5.23,KE,1619424507
534,Redlands,34.0556,-117.1825,14.0,62,90,4.12,US,1619424507
535,Podor,16.6527,-14.9587,22.0,68,0,1.03,MR,1619424508
536,Butembo,0.15,29.2833,20.39,69,91,1.05,CD,1619424508
537,Yārāda,17.65,83.2667,35.0,52,20,5.14,IN,1619424509
538,Port Lincoln,-34.7333,135.8667,16.92,72,0,4.35,AU,1619424195
539,Carutapera,-1.195,-46.02,23.85,92,76,1.83,BR,1619424069
540,Carballo,43.213,-8.691,13.33,96,47,0.42,ES,1619424509
541,Traverse City,44.7631,-85.6206,1.11,60,90,2.06,US,1619424325
542,Longyan,25.1072,117.0225,23.18,73,100,0.76,CN,1619424334
543,Sleaford,52.9983,-0.4094,7.0,61,20,5.14,GB,1619424510
544,Margate,51.3813,1.3862,7.22,61,28,0.89,GB,1619424402
545,Boké,10.9409,-14.2967,25.33,68,16,0.52,GN,1619424510
546,Remedios,22.4947,-79.5458,23.0,49,40,0.51,CU,1619424511
547,Sinop Province,41.7711,34.8709,11.0,82,75,5.14,TR,1619424144
548,Jishou,28.3167,109.7167,18.22,82,100,2.02,CN,1619424511
549,Collie,-33.3667,116.15,22.78,46,100,0.89,AU,1619424512
550,Lamego,41.0974,-7.8099,12.22,90,60,0.89,PT,1619424512
551,Thessalon,46.2501,-83.5666,-3.0,80,1,1.05,CA,1619424513
552,Guiratinga,-16.3494,-53.7583,17.97,84,87,1.63,BR,1619424513
553,Siparia,10.1333,-61.5,23.89,93,100,0.45,TT,1619424513
554,Obo,5.3998,26.4869,26.02,63,95,3.02,CF,1619424514
555,Kulhudhuffushi,6.6221,73.07,29.15,71,9,2.57,MV,1619424514
556,Forsytheganj,52.6333,29.7333,6.1,43,9,3.7,BY,1619424514
557,Westport,41.1415,-73.3579,7.0,49,1,6.69,US,1619424515
558,Nara,34.6851,135.8049,19.0,19,0,5.66,JP,1619424515
559,Kiama,-34.6833,150.8667,16.67,74,0,1.0,AU,1619424516
560,Vila Velha,-20.3297,-40.2925,23.0,88,0,2.57,BR,1619424516
561,Camalú,30.85,-116.0667,8.89,59,31,1.4,MX,1619424516
562,Rybachiy,48.7073,44.7449,10.0,53,0,5.0,RU,1619424517
563,Mil'kovo,54.7167,158.6167,2.66,92,100,1.22,RU,1619424517
564,Aykhal,66.0,111.5,-9.65,91,100,12.43,RU,1619424395
565,Great Malvern,52.1116,-2.3252,6.67,69,63,4.47,GB,1619424518
