,City,Lat,Lng,Max Temp,Humidity,Cloudiness,Wind Speed,Country,Date
0,Husavik,66.0449,-17.3389,32.0,93,0,3.44,IS,1619570374
1,Chokurdakh,70.6333,147.9167,28.63,93,100,4.56,RU,1619570374
2,Punta Arenas,-53.15,-70.9167,42.8,87,90,10.36,CL,1619570261
3,Vaini,-21.2,-175.2,75.2,83,75,17.27,TO,1619570375
4,Hobart,-42.8794,147.3294,63.0,67,75,9.22,AU,1619570249
5,Port Elizabeth,-33.918,25.5701,60.8,88,75,8.05,ZA,1619570375
6,Boddam,57.4667,-1.7833,43.0,93,90,4.61,GB,1619570376
7,Busselton,-33.65,115.3333,67.35,76,6,2.35,AU,1619570376
8,Tazovsky,67.4667,78.7,32.36,92,100,8.48,RU,1619570377
9,Albany,42.6001,-73.9662,59.0,41,88,0.49,US,1619570282
10,Bluff,-46.6,168.3333,55.0,87,94,17.0,NZ,1619570377
11,Kautokeino,69.0125,23.0412,7.86,96,85,3.31,NO,1619570377
12,Aberdeen,57.1437,-2.0981,41.0,93,90,4.61,GB,1619570192
13,Fortuna,40.5982,-124.1573,60.01,67,1,10.36,US,1619570378
14,Tripoli,32.8752,13.1875,69.24,68,100,7.94,LY,1619570378
15,Havre-St-Pierre,50.2334,-63.5986,39.2,100,90,4.61,CA,1619570379
16,Ancud,-41.8697,-73.8203,54.0,94,40,8.05,CL,1619570379
17,Makakilo City,21.3469,-158.0858,82.4,57,20,13.8,US,1619570379
18,Ponta Delgada,37.7333,-25.6667,59.0,82,75,12.66,PT,1619570380
19,Namie,37.4833,141.0,64.99,55,100,4.27,JP,1619570380
20,Bredasdorp,-34.5322,20.0403,48.2,93,100,0.43,ZA,1619570381
21,Jamestown,42.097,-79.2353,71.6,43,20,9.22,US,1619570124
22,Berbera,10.4396,45.0143,84.25,75,97,1.72,SO,1619570381
23,Airai,-8.9266,125.4092,71.11,36,9,1.5,TL,1619570382
24,Jumla,29.2747,82.1838,52.29,53,7,3.78,NP,1619570382
25,Clyde River,70.4692,-68.5914,21.2,73,1,8.05,CA,1619570383
26,Avarua,-21.2078,-159.775,82.4,74,82,9.22,CK,1619570383
27,Karligan,14.975,122.0456,79.68,70,100,9.6,PH,1619570383
28,Camacha,33.0833,-16.3333,62.6,82,40,3.44,PT,1619570384
29,Palu,-0.8917,119.8707,86.2,67,13,1.43,ID,1619570384
30,Hermanus,-34.4187,19.2345,55.0,88,86,4.56,ZA,1619570384
31,Cabo San Lucas,22.8909,-109.9124,73.99,52,1,18.41,MX,1619570184
32,Tasiilaq,65.6145,-37.6368,35.6,75,20,11.5,GL,1619570385
33,Khatanga,71.9667,102.5,26.31,82,97,7.36,RU,1619570385
34,Korla,41.7597,86.1469,60.82,31,47,2.8,CN,1619570386
35,Barrow,71.2906,-156.7887,19.4,86,90,8.05,US,1619570360
36,Krasnosel'kup,65.7,82.4667,31.91,98,100,10.07,RU,1619570112
37,Ushuaia,-54.8,-68.3,42.8,93,75,11.5,AR,1619570108
38,Atuona,-9.8,-139.0333,80.15,71,17,13.44,PF,1619570387
39,The Valley,18.217,-63.0578,77.0,83,75,10.36,AI,1619570387
40,Kushiro,42.975,144.3747,53.6,40,75,9.22,JP,1619570388
41,Alenquer,-1.9417,-54.7383,75.2,100,20,3.44,BR,1619570388
42,Dakar,14.6937,-17.4441,68.0,94,93,16.11,SN,1619570382
43,Hilo,19.7297,-155.09,84.2,51,1,6.91,US,1619570389
44,Cape Town,-33.9258,18.4232,57.99,88,0,5.75,ZA,1619570091
45,Progreso,21.2833,-89.6667,95.0,36,75,18.41,MX,1619570287
46,Saint George,37.1041,-113.5841,66.0,36,75,3.44,US,1619570389
47,Evensk,61.95,159.2333,27.14,68,2,4.14,RU,1619570390
48,Surgut,61.25,73.4167,33.8,100,0,6.71,RU,1619570390
49,Half Moon Bay,37.4636,-122.4286,64.4,72,1,17.27,US,1619570280
50,Kupang,-10.1667,123.5833,80.02,62,69,3.38,ID,1619570391
51,Santiago del Estero,-27.7951,-64.2615,62.82,61,0,7.7,AR,1619570391
52,Rikitea,-23.1203,-134.9692,77.02,74,100,12.26,PF,1619570389
53,Saskylakh,71.9167,114.0833,28.13,89,99,11.39,RU,1619570391
54,Port Alfred,-33.5906,26.891,64.92,78,100,9.24,ZA,1619570392
55,Nizwá,22.9333,57.5333,80.33,29,100,1.05,OM,1619570392
56,Mount Isa,-20.7333,139.5,80.6,29,0,17.27,AU,1619570393
57,Lagoa,39.05,-27.9833,59.72,78,100,12.37,PT,1619570393
58,São Raimundo Nonato,-9.0153,-42.6994,76.78,58,26,1.88,BR,1619570393
59,Kita,13.0349,-9.4895,93.63,22,61,5.53,ML,1619570394
60,Wilmington,34.2257,-77.9447,71.6,68,1,11.5,US,1619570390
61,Nanortalik,60.1432,-45.2371,33.71,91,9,6.76,GL,1619570394
62,Mogadishu,2.0371,45.3438,82.83,76,94,10.67,SO,1619570395
63,Esperance,-33.8667,121.9,60.8,100,40,3.44,AU,1619570395
64,Mar del Plata,-38.0023,-57.5575,57.2,82,0,3.44,AR,1619570263
65,Qui Nhon,13.7667,109.2333,81.27,77,100,3.4,VN,1619570209
66,Verāval,20.9,70.3667,79.72,77,0,10.0,IN,1619570396
67,Rocha,-34.4833,-54.3333,51.21,89,0,4.36,UY,1619570396
68,Laguna,38.421,-121.4238,80.01,15,1,12.66,US,1619570397
69,Souillac,-20.5167,57.5167,75.2,94,75,10.36,MU,1619570397
70,Coyhaique,-45.5752,-72.0662,48.2,76,40,6.91,CL,1619570398
71,Yellowknife,62.456,-114.3525,19.4,45,75,14.97,CA,1619570322
72,Darhan,49.4867,105.9228,40.84,58,12,3.89,MN,1619570398
73,Saint-Philippe,-21.3585,55.7679,77.0,78,90,6.91,RE,1619570398
74,Dehlorān,32.6941,47.2679,78.28,37,100,4.45,IR,1619570399
75,Kiboga,0.9161,31.7742,61.21,98,55,2.37,UG,1619570399
76,Puerto Ayora,-0.7393,-90.3518,75.43,89,34,6.76,EC,1619570400
77,Caravelas,-17.7125,-39.2481,74.32,79,14,6.15,BR,1619570378
78,Ribeira Grande,38.5167,-28.7,60.28,82,75,13.51,PT,1619570400
79,Black River,18.0264,-77.8487,82.4,51,20,8.05,JM,1619570400
80,Sitka,57.0531,-135.33,48.2,66,90,13.8,US,1619570401
81,Bambous Virieux,-20.3428,57.7575,77.0,94,75,10.36,MU,1619570401
82,Vanimo,-2.6741,141.3028,85.8,65,2,2.35,PG,1619570402
83,Dunedin,-45.8742,170.5036,55.99,44,100,5.01,NZ,1619570402
84,Thompson,55.7435,-97.8558,24.8,46,75,14.97,CA,1619570403
85,Fairbanks,64.8378,-147.7164,50.0,17,1,12.66,US,1619570304
86,Batagay,67.6333,134.6333,21.06,82,100,5.99,RU,1619570403
87,Arman',59.7,150.1667,29.57,73,13,1.39,RU,1619570404
88,Samarkand,39.6542,66.9597,66.2,42,0,9.22,UZ,1619570404
89,Butaritari,3.0707,172.7902,82.33,77,90,8.57,KI,1619570405
90,Awjilah,29.1081,21.2869,73.99,20,0,10.0,LY,1619570405
91,Voh,-20.9667,164.7,78.01,50,28,15.93,NC,1619570405
92,Santa Rosa,14.3122,121.1114,84.99,61,20,2.3,PH,1619570406
93,Mataura,-46.1927,168.8643,55.0,89,100,17.0,NZ,1619570406
94,San Cristobal,7.7669,-72.225,78.8,100,40,2.3,VE,1619570406
95,Bengkulu,-3.8004,102.2655,79.27,79,36,2.37,ID,1619570407
96,Rapid City,44.0805,-103.231,55.4,58,20,4.61,US,1619570244
97,Mahébourg,-20.4081,57.7,75.2,94,75,10.36,MU,1619570408
98,Sanlúcar la Mayor,37.3871,-6.2011,61.0,90,37,4.32,ES,1619570408
99,Santa Marta,11.2408,-74.199,82.99,70,100,5.01,CO,1619570409
100,Manokwari,-0.8667,134.0833,83.1,67,89,3.11,ID,1619570308
101,Pine Bluff,34.2284,-92.0032,78.8,65,1,9.22,US,1619570408
102,Turangi,-39.0,175.9333,53.76,54,70,3.96,NZ,1619570409
103,Yerbogachën,61.2767,108.0108,29.16,62,12,2.73,RU,1619570410
104,Avera,33.194,-82.5271,75.2,57,1,6.22,US,1619570410
105,San Miguel de Cozumel,20.5083,-86.9458,82.99,78,40,13.8,MX,1619570411
106,Khrebtovaya,56.7032,104.2494,27.61,56,0,5.97,RU,1619570411
107,East London,-33.0153,27.9116,64.51,72,100,10.11,ZA,1619570411
108,Kapaa,22.0752,-159.319,75.2,83,75,8.05,US,1619570412
109,Lufilufi,-13.8745,-171.5986,87.8,79,75,10.36,WS,1619570412
110,Coquimbo,-29.9533,-71.3436,57.2,88,0,5.75,CL,1619570412
111,Finnsnes,69.2296,17.9811,26.6,80,90,3.44,NO,1619570413
112,Mount Gambier,-37.8333,140.7667,55.4,94,75,4.61,AU,1619570413
113,Kutum,14.2,24.6667,71.46,15,99,7.25,SD,1619570413
114,Qaanaaq,77.484,-69.3632,35.71,94,100,0.4,GL,1619570414
115,Kulhudhuffushi,6.6221,73.07,83.79,72,75,6.58,MV,1619570414
116,Curup,-3.4667,102.5333,74.07,87,75,2.44,ID,1619570415
117,Kaeo,-35.1,173.7833,66.99,60,56,8.01,NZ,1619570415
118,Port Moresby,-9.4431,147.1797,78.8,89,40,5.75,PG,1619570415
119,Thinadhoo,0.5333,72.9333,82.17,66,100,2.17,MV,1619570416
120,Bathsheba,13.2167,-59.5167,78.8,65,40,11.5,BB,1619570416
121,Fort-Shevchenko,44.5086,50.263,54.27,76,100,11.18,KZ,1619570417
122,Smolenka,52.1352,113.4974,26.6,50,40,15.66,RU,1619570417
123,Macon,39.8667,-88.9668,78.8,53,1,23.02,US,1619570417
124,Bambanglipuro,-7.95,110.2833,81.34,74,50,12.24,ID,1619570418
125,Labuhan,-6.8844,112.2051,81.03,76,10,4.79,ID,1619570418
126,Bethel,41.3712,-73.414,60.8,29,1,4.61,US,1619570419
127,Cherskiy,68.75,161.3,28.24,79,94,13.22,RU,1619570419
128,Palmer,42.1584,-72.3287,60.8,31,40,6.91,US,1619570420
129,Matara,5.9485,80.5353,79.16,85,72,5.14,LK,1619570420
130,Mabaruma,8.2,-59.7833,74.21,88,79,3.62,GY,1619570420
131,Iranshahr,27.2025,60.6848,77.0,19,0,0.6,IR,1619570421
132,Lubbock,33.6001,-101.8338,84.2,13,40,10.36,US,1619570126
133,Nabire,-3.3667,135.4833,82.62,78,9,3.09,ID,1619570421
134,Saldanha,-33.0117,17.9442,55.4,88,100,5.75,ZA,1619570422
135,Kenitra,34.261,-6.5802,57.2,94,40,0.29,MA,1619570422
136,Tiksi,71.6872,128.8694,14.72,81,100,10.25,RU,1619570422
137,Izhma,65.0083,53.9113,32.23,96,100,4.45,RU,1619570423
138,Acajutla,13.5928,-89.8275,73.99,97,100,3.0,SV,1619570209
139,Canto do Buriti,-8.11,-42.9444,79.56,56,82,1.19,BR,1619570424
140,Bilma,18.6853,12.9164,84.42,12,0,2.57,NE,1619570424
141,Poum,-20.2333,164.0167,76.59,59,0,20.29,NC,1619570424
142,Mandalgovi,45.7625,106.2708,37.26,44,7,18.41,MN,1619570425
143,Kahului,20.8947,-156.47,80.6,74,40,8.05,US,1619570425
144,Nioro,13.35,-15.75,78.84,31,100,10.07,GM,1619570425
145,Port Blair,11.6667,92.75,82.4,67,95,3.51,IN,1619570426
146,Lüderitz,-26.6481,15.1594,58.78,84,6,9.8,NA,1619570426
147,Quatre Cocos,-20.2078,57.7625,77.0,94,75,10.36,MU,1619570427
148,Samaná,19.2056,-69.3369,74.84,81,33,8.41,DO,1619570427
149,Tual,-5.6667,132.75,83.34,63,17,2.86,ID,1619570428
150,Honiara,-9.4333,159.95,83.48,76,97,1.99,SB,1619570428
151,Arraial do Cabo,-22.9661,-42.0278,73.51,83,90,13.53,BR,1619570428
152,Minzhu,43.7286,127.3447,55.08,30,0,12.8,CN,1619570429
153,Smithers,54.7804,-127.1743,46.4,66,90,5.75,CA,1619570429
154,Hithadhoo,-0.6,73.0833,82.31,67,98,2.15,MV,1619570429
155,‘Ewa Beach,21.3156,-158.0072,82.4,57,20,13.8,US,1619570174
156,Mâncio Lima,-7.6142,-72.8958,70.97,94,97,1.7,BR,1619570430
157,Dikson,73.5069,80.5464,31.89,97,100,18.68,RU,1619570430
158,California City,35.1258,-117.9859,68.0,29,1,20.71,US,1619570172
159,Sretensk,52.2453,117.7093,32.36,51,100,8.93,RU,1619570431
160,San Isidro,-12.1167,-77.05,64.99,88,40,8.05,PE,1619570431
161,Constitución,-35.3333,-72.4167,57.27,69,4,9.06,CL,1619570156
162,Yangi Marg`ilon,40.4272,71.7189,62.6,39,0,9.22,UZ,1619570432
163,Guerrero Negro,27.9769,-114.0611,61.93,67,0,17.47,MX,1619570361
164,Boyolangu,-8.1181,111.8935,79.63,77,78,8.32,ID,1619570433
165,Pacific Grove,36.6177,-121.9166,64.4,48,1,11.5,US,1619570433
166,Bongouanou,6.6486,-4.1992,74.03,96,97,2.06,CI,1619570433
167,Leningradskiy,69.3833,178.4167,24.66,80,25,11.45,RU,1619570434
168,São Filipe,14.8961,-24.4956,72.64,76,0,7.76,CV,1619570434
169,Lianran,24.9227,102.485,57.2,88,90,8.95,CN,1619570435
170,San Buenaventura,27.0833,-101.5333,91.13,31,76,14.47,MX,1619570435
171,Madison,34.7334,-86.5667,75.2,60,1,5.75,US,1619570268
172,Lompoc,34.6391,-120.4579,59.0,63,0,16.11,US,1619570436
173,Castro,-24.7911,-50.0119,54.14,79,0,2.77,BR,1619570436
174,Port Macquarie,-31.4333,152.9167,72.0,62,4,1.99,AU,1619570223
175,Xining,36.6167,101.7667,37.15,57,31,2.08,CN,1619570436
176,Kamphaeng Phet,16.25,99.5,79.25,79,99,1.66,TH,1619570437
177,Chui,-33.6971,-53.4616,53.31,81,0,5.99,UY,1619570437
178,Guarapari,-20.6667,-40.4975,77.0,83,90,5.75,BR,1619570438
179,Camaná,-16.6228,-72.7111,67.73,84,97,8.43,PE,1619570438
180,Cidreira,-30.1811,-50.2056,59.58,76,3,8.32,BR,1619570438
181,Ulaangom,49.9811,92.0667,45.68,39,100,1.3,MN,1619570439
182,Arlit,18.7369,7.3853,88.92,9,0,11.86,NE,1619570439
183,Wewak,-3.5534,143.6268,85.33,67,9,2.64,PG,1619570439
184,Panjāb,34.388,67.0233,48.43,55,0,1.74,AF,1619570440
185,Carolina,18.3808,-65.9574,78.8,73,40,8.05,PR,1619570440
186,Sur,22.5667,59.5289,86.23,35,90,9.84,OM,1619570441
187,Ozernovskiy,51.5,156.5167,35.35,97,100,13.49,RU,1619570441
188,Arroyo de la Encomienda,41.6096,-4.7969,51.01,93,40,3.44,ES,1619570441
189,Matagami,49.7502,-77.6328,48.2,29,90,2.3,CA,1619570442
190,Chumikan,54.7183,135.315,31.66,95,100,16.15,RU,1619570442
191,Sittwe,20.15,92.9,82.96,73,19,5.12,MM,1619570442
192,La Ronge,55.1001,-105.2842,24.8,36,90,13.8,CA,1619570443
193,Sheopur,25.6667,76.7,84.43,8,0,3.04,IN,1619570443
194,Talnakh,69.4865,88.3972,27.64,79,100,10.63,RU,1619570443
195,Linxia Chengguanzhen,35.6003,103.2064,40.57,63,6,1.34,CN,1619570347
196,Saint Paul Harbor,57.79,-152.4072,44.6,76,90,25.32,US,1619570444
197,Leshukonskoye,64.8989,45.7622,26.87,90,100,6.49,RU,1619570444
198,Paamiut,61.994,-49.6678,35.47,85,4,11.39,GL,1619570445
199,Shache,38.4167,77.2406,60.93,21,0,2.71,CN,1619570445
200,Nacozari,25.3366,-108.2574,81.0,53,0,5.01,MX,1619570446
201,Coro,11.4045,-69.6734,78.75,82,100,13.56,VE,1619570446
202,Mullingar,53.5333,-7.35,45.0,82,99,5.01,IE,1619570446
203,Oranjestad,12.524,-70.027,81.0,78,20,13.8,AW,1619570422
204,New Norfolk,-42.7826,147.0587,63.0,62,94,3.58,AU,1619570447
205,Adrar,20.5022,-10.0711,80.94,18,17,13.04,MR,1619570447
206,Nikolskoye,59.7035,30.7861,35.6,75,75,2.24,RU,1619570448
207,Port Hedland,-20.3167,118.5667,78.8,24,0,8.05,AU,1619570448
208,Kavieng,-2.5744,150.7967,83.97,70,50,6.62,PG,1619570448
209,Acapulco de Juárez,16.8634,-99.8901,82.4,78,1,6.91,MX,1619570240
210,Ulety,51.3572,112.4849,30.02,39,100,10.11,RU,1619570449
211,Calama,-22.4667,-68.9333,57.2,26,0,6.91,CL,1619570449
212,Lorengau,-2.0226,147.2712,85.62,66,11,5.86,PG,1619570450
213,Provideniya,64.3833,-173.3,30.2,93,75,11.18,RU,1619570450
214,San Patricio,28.017,-97.5169,78.01,88,90,18.41,US,1619570451
215,Krasnorechenskiy,44.6265,135.3532,44.96,88,100,6.91,RU,1619570451
216,Te Anau,-45.4167,167.7167,44.94,83,100,0.89,NZ,1619570451
217,Hihyā,30.6713,31.588,60.8,77,0,11.5,EG,1619570452
218,Jacareacanga,-6.2222,-57.7528,72.82,98,100,2.51,BR,1619570452
219,Hamadan,34.7992,48.5146,57.25,51,100,7.16,IR,1619570452
220,Paita,-5.0892,-81.1144,70.5,78,95,15.23,PE,1619570453
221,Moindou,-21.6924,165.677,77.0,50,20,18.41,NC,1619570453
222,Iqaluit,63.7506,-68.5145,23.0,74,20,8.05,CA,1619570454
223,Port-Gentil,-0.7193,8.7815,82.74,78,100,7.34,GA,1619570454
224,Port Lincoln,-34.7333,135.8667,67.75,49,100,3.36,AU,1619570454
225,São José da Coroa Grande,-8.8978,-35.1478,77.34,86,13,6.11,BR,1619570455
226,Dubbo,-32.25,148.6167,66.2,63,100,12.66,AU,1619570455
227,Sistranda,63.7256,8.834,33.8,86,40,4.61,NO,1619570456
228,Bubaque,11.2833,-15.8333,78.62,67,100,17.94,GW,1619570456
229,Margate,51.3813,1.3862,46.99,83,6,1.99,GB,1619570456
230,Marinette,45.1,-87.6307,44.6,93,90,6.91,US,1619570457
231,Dhārchula,29.85,80.5333,66.74,36,54,7.87,IN,1619570457
232,Alice Town,25.7167,-79.3,76.21,66,98,20.22,BS,1619570457
233,Faanui,-16.4833,-151.75,81.86,72,51,10.11,PF,1619570458
234,Klaksvík,62.2266,-6.589,39.2,81,40,5.75,FO,1619570458
235,Agirish,61.9247,63.0231,33.33,86,11,4.34,RU,1619570459
236,Vestmanna,62.1564,-7.1664,39.2,81,40,5.75,FO,1619570459
237,Jining,35.405,116.5814,66.99,1,100,5.14,CN,1619570459
238,Beloha,-25.1667,45.05,71.26,65,0,6.2,MG,1619570460
239,Rosamorada,22.1222,-105.2058,81.91,47,85,7.16,MX,1619570460
240,Magway,20.15,94.9167,84.83,62,0,8.34,MM,1619570461
241,Kumul,42.8,93.45,59.05,15,100,4.32,CN,1619570461
242,George Town,5.4112,100.3354,82.0,89,20,2.3,MY,1619570461
243,Bria,6.5423,21.9863,70.45,81,84,2.26,CF,1619570462
244,Charyshskoye,51.3978,83.5598,56.37,52,100,11.83,RU,1619570462
245,Great Falls,47.5002,-111.3008,63.0,20,1,12.66,US,1619570462
246,Viedma,-40.8135,-62.9967,65.62,57,50,10.38,AR,1619570411
247,Sept-Îles,50.2001,-66.3821,45.0,76,75,6.91,CA,1619570458
248,Nouadhibou,20.931,-17.0347,66.2,88,0,9.22,MR,1619570463
249,Tiznit Province,29.5833,-9.5,56.77,83,53,4.12,MA,1619570464
250,Westport,41.1415,-73.3579,55.0,58,1,5.75,US,1619570464
251,Tuatapere,-46.1333,167.6833,55.0,89,95,17.0,NZ,1619570464
252,Hualmay,-11.0964,-77.6139,66.83,87,99,10.58,PE,1619570465
253,Huarmey,-10.0681,-78.1522,68.29,85,85,8.57,PE,1619570465
254,Cayenne,4.9333,-52.3333,75.0,100,0,5.37,GF,1619570466
255,Leer,8.3018,30.1418,82.81,52,100,5.1,SS,1619570466
256,Savannah Bight,16.45,-85.85,82.0,74,75,9.22,HN,1619570466
257,Flin Flon,54.7682,-101.865,27.25,40,100,8.32,CA,1619570467
258,Wanaka,-44.7,169.15,52.65,44,25,2.62,NZ,1619570467
259,Podor,16.6527,-14.9587,80.6,41,0,4.61,MR,1619570467
260,Lake Havasu City,34.4839,-114.3224,71.6,23,1,13.8,US,1619570468
261,Pingzhuang,42.0372,119.2889,53.78,15,0,21.81,CN,1619570468
262,Verkhnyaya Inta,65.9811,60.3094,27.64,93,100,6.08,RU,1619570469
263,Zhangjiakou,40.81,114.8794,51.98,18,3,15.48,CN,1619570469
264,Champerico,14.3,-91.9167,78.8,89,75,1.88,GT,1619570469
265,Kieta,-6.2167,155.6333,86.45,65,79,2.48,PG,1619570470
266,Mojoagung,-7.5667,112.35,80.6,83,20,4.61,ID,1619570470
267,Chapais,49.7834,-74.8492,51.8,46,90,6.91,CA,1619570470
268,Smidovich,48.6,133.8167,50.67,84,100,14.88,RU,1619570471
269,Nishihara,26.1842,127.7558,75.2,64,75,12.66,JP,1619570471
270,Dingle,10.9995,122.6711,80.26,74,100,8.93,PH,1619570472
271,Ukmerge,55.25,24.75,37.4,75,90,5.75,LT,1619570472
272,Saint Anthony,45.0205,-93.218,46.4,87,90,8.05,US,1619570472
273,Broome,42.2506,-75.833,66.2,37,1,4.61,US,1619570473
274,Mossamedes,-15.1961,12.1522,76.08,66,94,8.48,AO,1619570473
275,Rock Sound,24.9,-76.2,75.42,71,87,18.61,BS,1619570474
276,Carutapera,-1.195,-46.02,77.32,87,100,4.56,BR,1619570474
277,Pedernales,18.0384,-71.744,79.34,67,28,5.1,DO,1619570475
278,Cancún,21.1743,-86.8466,82.4,74,75,12.66,MX,1619570419
279,Bintulu,3.1667,113.0333,78.8,89,20,3.44,MY,1619570475
280,Shimanovsk,52.0,127.7,56.48,34,98,8.9,RU,1619570475
281,Oktyabr'skiy,54.4815,53.471,38.05,87,50,10.07,RU,1619570476
282,Marawi,7.9986,124.2928,82.0,77,54,2.19,PH,1619570476
283,Dingzhou,38.5131,114.9956,60.8,25,0,4.47,CN,1619570477
284,Kapoeta,4.7717,33.5903,76.44,59,98,7.07,SS,1619570477
285,Erkner,52.4167,13.75,43.0,56,0,8.05,DE,1619570477
286,Upernavik,72.7868,-56.1549,27.36,91,98,9.51,GL,1619570478
287,Nuevo Casas Grandes,30.4167,-107.9167,64.99,35,3,18.01,MX,1619570478
288,Abhā,18.2164,42.5053,59.0,82,0,3.98,SA,1619570478
289,Autun,46.95,4.3,50.0,81,0,2.3,FR,1619570479
290,Slave Lake,55.2834,-114.769,23.0,93,90,8.05,CA,1619570479
291,Salalah,17.0151,54.0924,82.4,74,0,4.61,OM,1619570480
292,Touros,-5.1989,-35.4608,78.8,83,40,3.44,BR,1619570480
293,Elizabeth City,36.2946,-76.2511,73.4,53,1,11.5,US,1619570480
294,Kimberley,-28.7323,24.7623,46.4,66,10,2.3,ZA,1619570481
295,Seoul,37.5683,126.9778,57.2,76,75,4.61,KR,1619570400
296,Cuiluan,47.72,128.648,55.0,28,100,12.41,CN,1619570481
297,Yulara,-25.2406,130.9889,66.2,37,0,11.5,AU,1619570482
298,Tuktoyaktuk,69.4541,-133.0374,17.6,67,20,9.22,CA,1619570482
299,Faya,18.3851,42.4509,59.0,82,0,3.4,SA,1619570483
300,Severo-Kuril'sk,50.6789,156.125,34.21,96,100,16.17,RU,1619570483
301,Sovetskiy,61.3614,63.5842,33.85,81,8,2.77,RU,1619570483
302,Lavrentiya,65.5833,-171.0,31.64,92,100,3.69,RU,1619570484
303,Okhotsk,59.3833,143.3,30.54,79,100,1.12,RU,1619570484
304,Sebeta,8.9167,38.6167,57.67,82,88,3.13,ET,1619570484
305,Cockburn Town,21.4612,-71.1419,78.24,74,17,18.75,TC,1619570485
306,Dogondoutchi,13.6393,4.0287,90.84,11,5,8.63,NE,1619570485
307,San Juan,-31.5375,-68.5364,68.86,40,0,8.61,AR,1619570187
308,Longyearbyen,78.2186,15.6401,15.8,86,75,2.3,SJ,1619570186
309,Ambilobe,-13.2,49.05,70.75,93,8,3.22,MG,1619570486
310,Kalachinsk,55.0529,74.5751,46.36,95,100,10.29,RU,1619570486
311,Peterhead,57.5058,-1.7981,43.0,93,90,4.61,GB,1619570487
312,Caucayá,-0.1934,-74.7819,69.15,99,100,1.48,CO,1619570487
313,Vetluga,57.8557,45.781,37.02,97,100,2.01,RU,1619570487
314,Kruisfontein,-34.0033,24.7314,55.0,91,100,4.14,ZA,1619570488
315,Yazman,29.1212,71.7446,84.4,14,11,7.83,PK,1619570488
316,Garden City,42.3256,-83.331,80.6,34,75,16.11,US,1619570420
317,Zaprešić,45.8564,15.8078,46.99,93,90,3.44,HR,1619570489
318,Moanda,-1.5575,13.2178,71.31,97,100,2.37,GA,1619570489
319,Castelldefels,41.2779,1.9703,57.2,82,20,2.3,ES,1619570490
320,Berlevåg,70.8578,29.0864,27.73,73,100,16.55,NO,1619570490
321,Lebu,-37.6167,-73.65,55.33,95,15,2.57,CL,1619570490
322,Hong Kong,22.2855,114.1577,77.0,87,97,6.93,HK,1619570194
323,Aklavik,68.2191,-135.0107,30.2,34,6,5.75,CA,1619570491
324,Katunino,64.3862,40.6298,28.4,80,40,2.24,RU,1619570491
325,Goderich,43.7501,-81.7165,62.6,63,100,2.3,CA,1619570370
326,Ponta do Sol,32.6667,-17.1,57.99,83,100,3.0,PT,1619570492
327,Toora-Khem,52.4675,96.11,38.19,79,100,2.55,RU,1619570492
328,Fare,-16.7,-151.0167,81.45,71,100,8.3,PF,1619570493
329,Puerto Escondido,15.85,-97.0667,84.2,70,1,4.61,MX,1619570493
330,Salaga,8.5508,-0.5188,80.94,71,100,2.62,GH,1619570494
331,Baykit,61.67,96.37,34.88,76,75,4.41,RU,1619570494
332,Yarmouth,41.7057,-70.2286,53.6,47,1,14.97,US,1619570494
333,Madukkūr,10.4833,79.4,83.41,74,20,5.5,IN,1619570495
334,Visby,57.6409,18.296,39.99,87,90,6.91,SE,1619570495
335,Oranjemund,-28.55,16.4333,57.56,95,60,5.82,NA,1619570496
336,Birnin Kebbi,12.4539,4.1975,88.48,38,12,6.11,NG,1619570496
337,Marsá Maţrūḩ,31.3525,27.2453,60.8,51,0,4.61,EG,1619570496
338,Abu Kamal,34.4506,40.9171,68.13,46,0,9.22,SY,1619570497
339,Codrington,-38.2667,141.9667,58.91,66,100,2.73,AU,1619570497
340,Saryg-Sep,51.5,95.6,37.71,97,100,1.97,RU,1619570498
341,Utinga,-5.8172,-35.3954,80.6,83,40,3.44,BR,1619570498
342,Aden,12.7794,45.0367,83.05,79,99,15.35,YE,1619570456
343,Padang,-0.9492,100.3543,77.0,94,40,2.3,ID,1619570498
344,Dongsheng,39.8161,109.9776,43.86,20,35,18.7,CN,1619570499
345,Safi,32.2994,-9.2372,62.35,84,11,1.34,MA,1619570499
346,Buchanan,5.8808,-10.0467,73.4,94,75,4.61,LR,1619570500
347,Baculin,7.4525,126.5842,82.74,78,92,6.58,PH,1619570500
348,Jiuquan,39.7432,98.5174,54.52,14,100,8.01,CN,1619570501
349,Kudahuvadhoo,2.6708,72.8944,82.09,74,53,5.39,MV,1619570501
350,Marondera,-18.1853,31.5519,60.3,65,98,4.21,ZW,1619570501
351,Makkah al Mukarramah,21.4267,39.8261,80.74,42,0,7.81,SA,1619570502
352,Solnechnyy,50.7214,136.6319,50.67,65,100,2.71,RU,1619570502
353,Quirinópolis,-18.4483,-50.4517,68.58,57,0,4.9,BR,1619570502
354,Eyl,7.9803,49.8164,83.16,72,34,4.7,SO,1619570503
355,Batesville,35.7698,-91.641,73.99,73,20,5.75,US,1619570503
356,Norman Wells,65.282,-126.8329,30.2,31,75,12.66,CA,1619570504
357,Kargil,34.5667,76.1,32.22,42,0,3.44,IN,1619570504
358,Valleyview,55.0667,-117.2859,24.8,74,100,9.22,CA,1619570504
359,Alugan,12.2188,125.4808,81.28,70,32,7.0,PH,1619570505
360,Aktobe,50.2797,57.2072,39.2,87,20,6.71,KZ,1619570505
361,Yārāda,17.65,83.2667,80.6,83,40,2.3,IN,1619570505
362,Kundiawa,-6.0167,144.9667,79.21,49,16,2.86,PG,1619570506
363,Horizontina,-27.6258,-54.3078,54.18,63,0,5.88,BR,1619570506
364,Basco,20.4487,121.9702,76.05,73,27,14.67,PH,1619570507
365,Tromsø,69.6496,18.957,28.4,93,75,2.3,NO,1619570507
366,Wukari,7.85,9.7833,80.98,71,98,8.37,NG,1619570507
367,Soma,39.1855,27.6094,55.99,93,0,2.01,TR,1619570508
368,Henties Bay,-22.116,14.2845,60.01,90,0,5.01,NA,1619570508
369,Pisco,-13.7,-76.2167,66.2,88,0,9.22,PE,1619570508
370,Cooma,-36.2333,149.1333,51.8,87,92,9.22,AU,1619570509
371,Medvezh'yegorsk,62.9167,34.4667,29.17,77,100,4.52,RU,1619570509
372,San Quintín,30.4833,-115.95,58.86,68,23,17.05,MX,1619570510
373,Yokadouma,3.5167,15.05,69.17,98,100,2.21,CM,1619570510
374,Aswān,24.0934,32.907,73.51,16,0,9.26,EG,1619570511
375,Lata,40.1629,-8.3327,59.0,87,58,3.51,PT,1619570511
376,Le Vauclin,14.5452,-60.8388,77.0,78,0,4.61,MQ,1619570512
377,Narsimhapur,22.95,79.2,82.94,14,0,3.56,IN,1619570512
378,Tautira,-17.7333,-149.15,86.0,58,75,8.05,PF,1619570512
379,Ilhabela,-23.7781,-45.3581,70.11,88,100,3.4,BR,1619570513
380,Chute-aux-Outardes,49.1168,-68.399,41.0,87,40,3.44,CA,1619570513
381,Lamar,33.6668,-95.5836,73.4,83,75,11.5,US,1619570513
382,Necoclí,8.4234,-76.786,77.41,88,100,10.11,CO,1619570514
383,Carnarvon,-24.8667,113.6333,69.8,56,0,6.91,AU,1619570514
384,Havøysund,70.9963,24.6622,28.4,80,75,13.8,NO,1619570515
385,Waipawa,-41.4122,175.5153,57.99,51,75,5.75,NZ,1619570515
386,Al Bardīyah,31.7561,25.0865,69.33,35,0,8.72,LY,1619570515
387,Esim,4.8699,-2.2405,81.36,85,100,8.01,GH,1619570516
388,Purranque,-40.9167,-73.1667,59.0,95,90,8.05,CL,1619570516
389,Tsiroanomandidy,-18.7667,46.0333,62.82,94,0,3.04,MG,1619570517
390,Kangaatsiaq,68.3065,-53.4641,31.69,93,100,7.99,GL,1619570517
391,Kiryat Gat,31.61,34.7642,59.0,81,0,0.81,IL,1619570343
392,Iraray,8.9936,118.0511,82.9,75,19,7.92,PH,1619570518
393,Saint-Augustin,51.226,-58.6502,36.72,99,100,2.75,CA,1619570518
394,Bowral,-34.4667,150.4167,69.01,73,100,1.99,AU,1619570519
395,Hasaki,35.7333,140.8333,69.8,56,75,13.8,JP,1619570519
396,Inongo,-1.95,18.2667,73.35,89,100,1.05,CD,1619570519
397,Yuscarán,13.9333,-86.85,80.6,44,40,11.5,HN,1619570520
398,Townsville,-19.25,146.8,77.0,69,40,10.36,AU,1619570520
399,Tambacounda,13.7539,-13.7586,91.4,17,0,6.91,SN,1619570521
400,Eresós,39.1667,25.9333,59.0,63,20,3.44,GR,1619570521
401,Narsaq,60.9167,-46.05,41.0,65,2,3.44,GL,1619570521
402,Lālmohan,22.3384,90.7419,83.77,73,25,9.35,BD,1619570522
403,Srednekolymsk,67.45,153.6833,30.38,84,25,5.66,RU,1619570523
404,Sanandij,35.3144,46.9923,56.5,64,0,2.98,IR,1619570523
405,Petropavlovsk-Kamchatskiy,53.0452,158.6483,42.8,87,40,11.18,RU,1619570523
406,Peniche,39.3558,-9.3811,59.0,86,49,5.01,PT,1619570524
407,Buriti Alegre,-18.14,-49.0403,68.18,61,4,3.89,BR,1619570524
408,Kaitangata,-46.2817,169.8464,54.0,58,100,8.01,NZ,1619570524
409,Juneau,58.3019,-134.4197,44.6,81,90,5.75,US,1619570525
410,Itacarambi,-15.1022,-44.0919,73.42,76,74,3.69,BR,1619570525
411,Buritis,-15.6178,-46.4233,70.7,87,75,2.28,BR,1619570526
412,Hofn,64.2539,-15.2082,41.58,63,12,15.37,IS,1619570526
413,Sibu,2.3,111.8167,77.0,88,40,4.61,MY,1619570526
414,Linhares,-19.3911,-40.0722,71.71,88,80,0.74,BR,1619570527
415,Sri Aman,1.2376,111.4621,75.2,100,40,1.05,MY,1619570527
416,Birao,10.2849,22.7882,79.95,47,27,3.56,CF,1619570528
417,Vanderhoof,54.0166,-124.0198,45.07,74,100,7.14,CA,1619570528
418,Taltal,-25.4,-70.4833,62.01,83,13,3.22,CL,1619570528
419,Chaman,30.9236,66.4512,71.62,23,100,5.59,PK,1619570529
420,Yar-Sale,66.8333,70.8333,30.9,94,100,2.35,RU,1619570529
421,Coahuayana Viejo,18.7333,-103.6833,82.4,51,40,11.5,MX,1619570529
422,Karaton,-6.3424,106.1045,84.0,83,40,4.61,ID,1619570530
423,Kununurra,-15.7667,128.7333,84.2,79,40,3.44,AU,1619570530
424,Nemuro,43.3236,145.575,55.4,44,40,6.91,JP,1619570531
425,Hambantota,6.1241,81.1185,77.0,100,20,2.3,LK,1619570531
426,Hervey Bay,-25.2986,152.8535,71.01,76,5,5.99,AU,1619570531
427,Kushima,31.4583,131.2333,62.6,94,75,1.14,JP,1619570355
428,Hamilton,39.1834,-84.5333,77.0,41,1,8.05,US,1619570478
429,Sechura,-5.5569,-80.8222,71.67,71,99,15.12,PE,1619570532
430,Vila Franca do Campo,37.7167,-25.4333,59.0,82,75,10.36,PT,1619570532
431,Byron Bay,-28.65,153.6167,68.0,77,90,11.5,AU,1619570423
432,Gambēla,8.25,34.5833,75.2,69,99,3.78,ET,1619570533
433,Porto-Novo,6.4965,2.6036,81.05,85,100,8.93,BJ,1619570533
434,Avallon,47.4833,3.9,45.0,57,6,2.93,FR,1619570534
435,Geraldton,-28.7667,114.6,62.6,67,2,3.44,AU,1619570534
436,San Joaquin,37.9333,-121.3011,79.0,22,1,8.05,US,1619570534
437,Salamanca,40.8333,-6.0,51.01,93,26,2.77,ES,1619570535
438,Araouane,18.9048,-3.5265,89.55,11,0,9.08,ML,1619570535
439,Salihorsk,52.7876,27.5415,36.18,88,96,5.57,BY,1619570536
440,Naryan-Mar,67.6713,53.087,23.67,79,93,6.78,RU,1619570536
441,Houma,29.5958,-90.7195,78.8,83,90,14.97,US,1619570403
442,Inuvik,68.3499,-133.7218,30.2,34,7,5.75,CA,1619570537
443,Hegang,47.4,130.3667,55.74,38,100,9.51,CN,1619570537
444,Mahanoro,-19.9,48.8,71.53,92,16,6.35,MG,1619570537
445,Winnemucca,40.973,-117.7357,55.4,26,20,5.75,US,1619570538
446,Isangel,-19.55,169.2667,78.8,73,40,9.22,VU,1619570538
447,Marshall,34.3834,-86.3333,71.6,56,1,4.61,US,1619570539
448,Sycamore,41.9889,-88.6868,80.6,47,40,11.5,US,1619570250
449,Dinard,48.6314,-2.0614,44.01,100,3,3.44,FR,1619570539
450,Grand-Santi,4.25,-54.3833,71.24,98,100,2.3,GF,1619570540
451,Robe,-37.1833,139.75,59.22,69,100,2.68,AU,1619570540
452,Richards Bay,-28.783,32.0377,72.14,85,97,11.1,ZA,1619570540
453,Hoa Binh,20.8133,105.3383,71.6,88,75,8.05,VN,1619570266
454,Sørland,67.667,12.6934,36.81,64,23,13.58,NO,1619570541
455,Nuuk,64.1835,-51.7216,33.8,93,19,13.8,GL,1619570541
456,Naze,28.3667,129.4833,71.6,64,75,10.36,JP,1619570542
457,Shebunino,46.4339,141.8603,45.21,79,100,11.56,RU,1619570542
458,Rognan,67.0953,15.3878,30.99,91,92,2.13,NO,1619570542
459,Jackson,42.4165,-122.8345,71.6,12,1,5.75,US,1619570543
460,Konanūr,12.6264,76.0542,71.87,83,2,3.22,IN,1619570543
461,Portmore,17.9702,-76.8672,84.2,58,20,12.66,JM,1619570544
462,Namatanai,-3.6667,152.4333,84.38,72,36,8.34,PG,1619570544
463,College,64.8569,-147.8028,48.99,19,75,6.91,US,1619570544
464,Bartica,6.4,-58.6167,77.0,94,75,4.61,GY,1619570545
465,Areosa,41.7178,-8.8571,55.4,94,40,3.42,PT,1619570545
466,Baijiantan,45.6333,85.1833,61.29,24,61,4.92,CN,1619570545
467,Uddevalla,58.3478,11.9424,37.4,65,90,2.3,SE,1619570546
468,Orlik,52.5178,99.825,31.53,78,99,2.84,RU,1619570546
469,Grand Gaube,-20.0064,57.6608,77.0,85,100,5.01,MU,1619570547
470,Diego de Almagro,-26.3667,-70.05,57.16,69,0,4.16,CL,1619570547
471,Lubango,-14.9172,13.4925,62.94,67,90,1.79,AO,1619570547
472,Pevek,69.7008,170.3133,21.52,91,100,9.95,RU,1619570548
473,Varhaug,58.6147,5.6457,35.6,87,0,1.14,NO,1619570548
474,Karup,56.3067,9.1684,35.01,80,20,1.14,DK,1619570548
475,Årdalstangen,61.2371,7.6983,28.99,79,19,5.59,NO,1619570549
476,Nome,64.5011,-165.4064,42.8,52,1,3.44,US,1619570549
477,Kathu,7.9178,98.3332,86.0,94,20,1.14,TH,1619570550
478,Sibiti,-3.6819,13.3499,69.8,97,100,1.54,CG,1619570550
479,Oytal,42.9057,73.2697,63.23,30,3,6.58,KZ,1619570550
480,Kalabo,-14.97,22.6814,66.16,74,93,4.9,ZM,1619570551
481,Mistrató,5.2973,-75.8832,68.0,88,40,4.61,CO,1619570551
482,Mehamn,71.0357,27.8492,27.1,73,100,15.41,NO,1619570551
483,Palauig,15.435,119.9045,83.23,67,100,3.09,PH,1619570552
484,Walvis Bay,-22.9575,14.5053,60.01,88,0,6.91,NA,1619570552
485,Biltine,14.5333,20.9167,80.44,9,0,8.16,TD,1619570553
486,Sobolevo,54.4299,31.8996,35.06,98,100,7.63,RU,1619570553
487,Waycross,31.2136,-82.354,75.2,60,1,9.22,US,1619570554
488,El Tigre,8.8875,-64.2454,84.4,47,100,14.45,VE,1619570554
489,Kokopo,-4.352,152.2633,84.04,67,6,5.35,PG,1619570554
490,Kuching,1.55,110.3333,77.0,94,20,3.11,MY,1619570338
491,Farafenni,13.5667,-15.6,78.67,31,99,10.96,GM,1619570555
492,Tabat,-2.635,115.2274,80.89,77,100,2.82,ID,1619570555
493,Yumen,40.2833,97.2,54.81,16,98,19.82,CN,1619570556
494,Frolovo,49.7713,43.6622,43.0,76,98,5.01,RU,1619570556
495,Thal,35.4791,72.2439,48.52,52,0,8.5,PK,1619570556
496,Becerril,9.7041,-73.2793,79.32,75,100,4.68,CO,1619570557
497,Lüshunkou,38.8,121.2667,62.6,31,0,8.95,CN,1619570557
498,Plettenberg Bay,-34.0527,23.3716,59.32,85,99,0.56,ZA,1619570557
499,Port Hardy,50.6996,-127.4199,48.2,100,90,4.61,CA,1619570533
500,Alta Floresta,-9.8756,-56.0861,71.26,95,42,1.57,BR,1619570558
501,Torbay,47.6666,-52.7314,42.01,100,90,4.61,CA,1619570558
502,Vao,-22.6667,167.4833,73.8,51,0,16.04,NC,1619570559
503,Severo-Yeniseyskiy,60.3725,93.0408,34.11,89,98,2.77,RU,1619570559
504,Goulburn,-34.75,149.7167,62.01,73,100,3.56,AU,1619570560
505,Tooele,40.5308,-112.2983,53.6,54,40,9.22,US,1619570560
506,Ippy,6.2679,21.2247,70.14,82,21,4.03,CF,1619570560
507,Yanam,16.7333,82.2167,82.4,89,20,3.44,IN,1619570561
508,Haines Junction,60.7522,-137.5108,37.4,25,43,8.05,CA,1619570561
509,Santa María del Oro,25.9333,-105.3667,70.27,41,90,21.99,MX,1619570562
510,Katsuura,35.1333,140.3,68.0,68,75,17.27,JP,1619570562
511,Uchiza,-8.4592,-76.4633,70.18,98,100,0.78,PE,1619570562
512,Acaraú,-2.8856,-40.12,77.97,83,94,9.01,BR,1619570563
513,Birjand,32.8663,59.2211,66.2,27,40,9.22,IR,1619570563
514,São João da Barra,-21.6403,-41.0511,70.48,96,95,8.28,BR,1619570564
515,Karratha,-20.7377,116.8463,83.35,20,0,16.24,AU,1619570289
516,Hirara,24.8,125.2833,77.0,69,40,10.36,JP,1619570564
517,Tessalit,20.1986,1.0114,88.84,14,5,4.14,ML,1619570565
518,Līsakovsk,52.5369,62.4936,41.59,92,6,10.36,KZ,1619570473
519,Tezu,27.9167,96.1667,86.11,25,22,1.59,IN,1619570566
520,Beipiao,41.7919,120.7792,56.91,17,0,18.95,CN,1619570566
521,Keetmanshoop,-26.5833,18.1333,69.8,37,78,10.36,NA,1619570566
522,Qaqortoq,60.7167,-46.0333,41.0,65,6,3.44,GL,1619570567
523,Matamoros,25.5333,-103.25,96.8,12,75,11.5,MX,1619570567
524,Gairo,39.8497,9.5047,59.0,82,20,4.61,IT,1619570567
525,Chhabra,24.6667,76.8333,82.58,20,0,0.69,IN,1619570568
526,Sirari,-1.2333,34.4333,59.27,91,94,5.59,TZ,1619570568
527,Mondovì,44.396,7.8176,52.0,85,99,2.48,IT,1619570569
528,Sudak,44.85,34.9667,48.31,62,100,3.47,UA,1619570569
529,Sakakah,29.9697,40.2064,62.6,27,0,3.44,SA,1619570569
530,Molėtai,55.2333,25.4167,37.0,87,75,3.44,LT,1619570570
531,Khonsa,27.0167,95.5667,78.93,31,8,2.01,IN,1619570570
532,Hatillo,18.4863,-66.8254,78.01,94,90,4.61,PR,1619570571
533,Bud,39.447,-86.1758,77.0,31,1,10.36,US,1619570571
534,Mundo Novo,-11.8589,-40.4725,67.57,82,10,3.11,BR,1619570571
535,Den Helder,52.9599,4.7593,46.4,71,20,13.8,NL,1619570568
536,Fuerte Olimpo,-21.0415,-57.8738,61.77,52,0,5.79,PY,1619570572
537,Russell,32.3502,-85.1999,78.8,69,1,5.75,US,1619570572
538,Rio Grande,-32.035,-52.0986,48.99,93,17,9.89,BR,1619570554
539,Luau,-10.7073,22.2247,62.08,94,42,2.37,AO,1619570573
540,Canutama,-6.5339,-64.3831,73.62,98,97,2.84,BR,1619570573
541,Turukhansk,65.8167,87.9833,35.92,88,100,17.76,RU,1619570574
542,Mwanza,-2.5167,32.9,66.2,94,75,8.3,TZ,1619570574
543,Burns Lake,54.2331,-125.7533,42.8,81,100,5.75,CA,1619570575
544,Vanavara,60.34,102.2797,31.05,64,5,3.85,RU,1619570575
545,Abalak,58.1286,68.5944,42.67,66,100,1.23,RU,1619570575
546,Olafsvik,64.8945,-23.7142,44.24,74,98,3.8,IS,1619570576
547,Mikhaylovka,50.06,43.2379,43.0,76,100,5.01,RU,1619570576
548,Pangnirtung,66.1451,-65.7125,15.04,90,6,6.71,CA,1619570576
549,Chaumont,48.1167,5.1333,41.0,75,0,3.44,FR,1619570577
550,Semey,50.4111,80.2275,55.4,33,0,11.18,KZ,1619570578
551,Azángaro,-14.9167,-70.2167,40.06,81,45,4.12,PE,1619570578
552,Puerto del Rosario,28.5004,-13.8627,66.2,72,0,4.61,ES,1619570578
553,Nālūt,30.3333,10.85,81.79,17,100,10.87,LY,1619570579
554,Umluj,25.0213,37.2685,76.39,64,0,7.52,SA,1619570579
555,Whitehorse,60.7161,-135.0538,32.0,47,75,12.66,CA,1619570533
556,Manavālakurichi,8.1333,77.3,82.4,83,20,5.79,IN,1619570580
557,Wichita,37.6922,-97.3375,75.0,78,90,11.5,US,1619570041
558,Vredendal,-31.6683,18.5012,59.74,82,65,4.56,ZA,1619570580
559,Orange,33.7,-117.7675,64.99,48,20,4.61,US,1619570324
560,Mosquera,4.7059,-74.2302,57.2,94,75,2.3,CO,1619570581
561,Casablanca,33.5928,-7.6192,57.2,94,40,3.44,MA,1619570581
562,Degtyarsk,56.704,60.0879,39.2,70,40,6.71,RU,1619570581
563,Stornoway,58.2093,-6.3865,44.6,81,75,12.66,GB,1619570582
564,Tiruchchendur,8.4833,78.1167,82.71,76,9,11.61,IN,1619570582
565,Linares,-35.85,-71.6,56.61,48,10,3.91,CL,1619570583
566,Coihueco,-36.6167,-71.8333,59.0,82,100,4.61,CL,1619570583
567,Cascais,38.6979,-9.4215,59.0,81,15,11.74,PT,1619570583
568,Beringovskiy,63.05,179.3167,33.35,98,100,4.5,RU,1619570584
569,Taoudenni,22.6783,-3.9836,90.66,16,23,9.15,ML,1619570584
570,Aksu,41.1231,80.2644,62.53,22,0,2.26,CN,1619570351
571,Twentynine Palms,34.1356,-116.0542,64.4,34,90,21.85,US,1619570585
572,Doha,25.2867,51.5333,84.2,69,0,5.75,QA,1619570585
